"Vehicle","Nom centre","Tipus Via","Nom via","Número via","Espai fisic","Codi postal","Municipi","Codi municipi","Comarca","Província","Longitud","Latitud","Georeferencia","Titular"
"No","AJUNTAMENT DE VALLIRANA","Carrer","MAJOR","329","sala principal","08759","Vallirana","08295","Baix Llobregat","Barcelona","1.931590972","41.38795517","POINT (1.931590972 41.38795517)","AJUNTAMENT DE VALLIRANA"
"No","policia local","Avinguda","de Catalunya","9","A l'edifici","43580","Deltebre","43901","Baix Ebre","Tarragona","0.722904904","40.72011903","POINT (0.722904904 40.72011903)","AJUNTAMENT DE DELTEBRE"
"No","DIPSALUT","Carrer","Pic de Peguera","15","A la recepció de DIPSALUT","17003","Girona","17079","Gironès","Girona","2.836938124","41.96724697","POINT (2.836938124 41.96724697)","DIPSALUT"
"No","INDRA","Lloc","De Gardeny","1","Edificio H1. Planta Hall","25194","Lleida","25120","Segrià","Lleida","0.611123893","41.60933909","POINT (0.611123893 41.60933909)","INDRA SISTEMAS, S.A."
"No","Planta de lubricantes Shell","Carrer","de la Classificació","12","Puerta 0 acceso planta","43006","Tarragona","43148","Tarragonès","Tarragona","1.203125896","41.10798529","POINT (1.203125896 41.10798529)","Taner Guler"
"No","KUEHNE & NAGEL,S.A.","Carrer","de l' Antàrtic","13","Ubicado en oficina","08040","Barcelona","08019","Barcelonès","Barcelona","2.14667501","41.3240294","POINT (2.14667501 41.3240294)","KUEHNE & NAGEL, S.A."
"Sí","Policia Local - cotxe 17","Plaça","Immaculada","16","Cotxe de la Policia Local","43500","Tortosa","43155","Baix Ebre","Tarragona",,,,"AJUNTAMENT DE TORTOSA"
"No","SERTRAM, SA","Carrer","ACER","30-32","RECEPCIÓ","08038","Barcelona","08019","Barcelonès","Barcelona","2.133180306","41.35654211","POINT (2.133180306 41.35654211)","SERTRAM, SA"
"Sí","0295KYF i 0297KYF","Plaça","de l'Ajuntament","0",,"08870","Sitges","08270","Garraf","Barcelona",,,,"AJUNTAMENT DE SITGES"
"No","BASF rubí","Carrer","de Verdi","36","hall","08191","Rubí","08184","Vallès Occidental","Barcelona","2.028148647","41.47202995","POINT (2.028148647 41.47202995)","BASF ESPAÑOLA, S.L.U"
"Sí","- 2971LLT","Carrer","del Garbí","17",,"17130","Escala, l'","17062","Alt Empordà","Girona",,,,"Ajuntament de l'Escala"
"Sí","- 0144MCM","Plaça","MAJOR","7",,"17256","Pals","17124","Baix Empordà","Girona",,,,"AJUNTAMENT DE PALS"
"No","FRIME SA","Mercat","CENTRAL DEL PEIX CASELLES","79-80","ZONA OFICINES","08040","Barcelona","08019","Barcelonès","Barcelona","2.132726855","41.4139009","POINT (2.132726855 41.4139009)","FRIME SA"
"No","Ajuntament","Plaça","del Vi","1","VIA PÚBLICA","17004","Girona","17079","Gironès","Girona","2.824795255","41.98315704","POINT (2.824795255 41.98315704)","Ajuntament"
"Sí","9518MRZ","Camí","DEL RACO","S/N","VEHICLE","43480","Vila-seca","43171","Tarragonès","Tarragona",,,,"INFINITUM RESORT SA"
"No","INSTITUT MARIUS TORRES","Carrer","NARCIS MONTURIOL","2","GIMNAS.","25002","Lleida","25120","Segrià","Lleida","0.616931555","41.60716308","POINT (0.616931555 41.60716308)","INSTITUT MARIUS TORRES"
"No","AJUNTAMENT DE RIUDAURA","Plaça","Del Gambeto","1","VIA PÚBLICA","17179","Riudaura","17149","Garrotxa","Girona","2.4069117","42.18866675","POINT (2.4069117 42.18866675)","AJUNTAMENT DE RIUDAURA"
"No","IDIADA","Ronda","de l' Albornar","0","SEGURETAT PASSIVA","43710","Santa Oliva","43140","Baix Penedès","Tarragona","1.517681425","41.26907684","POINT (1.517681425 41.26907684)","IDIADA AUTOMOTIVE TECHNOLOGY S.A."
"No","Ajuntament d'Arbúcies","Carrer","Major","2","Via Pública","17401","Arbúcies","17009","Selva","Girona","2.513880613","41.81609369","POINT (2.513880613 41.81609369)","Ajuntament d'Arbúcies"
"No","AJUNTAMENT D'ARBECA","Avinguda","dels Portals","3","Exterior farmàcia.","25140","Arbeca","25029","Garrigues","Lleida","0.925503755","41.54085504","POINT (0.925503755 41.54085504)","AJUNTAMENT D'ARBECA"
"Sí","- 7778 KWV Nº8GUT","Carrer","de l' Arquebisbe Pont i Gol","8",,"43005","Tarragona","43148","Tarragonès","Tarragona",,,,"AJUNTAMENT DE TARRAGONA"
"No","AJUNTAMENT DE SANT JAUME DELS DOMENYS","Plaça","Sant Roig","2","A la paret de la Societat de la Torregassa","43713","Sant Jaume dels Domenys","43137","Baix Penedès","Tarragona","1.560084802","41.29927487","POINT (1.560084802 41.29927487)","AJUNTAMENT DE SANT JAUME DELS DOMENYS"
"No","DIAGONAL TV, SAU","Carrer","Larrard","20","SALITA CAFÉ","08024","Barcelona","08019","Barcelonès","Barcelona","2.154980744","41.41163462","POINT (2.154980744 41.41163462)","DIAGONAL TV, SAU"
"Sí","- 7899KFM","Carrer","del Raval","45",,"17450","Hostalric","17083","Selva","Girona",,,,"AJUNTAMENT D'HOSTALRIC"
"No","Montgriser, SL","Carrer","Garbí","86","RECEPCIÓ","08397","Pineda de Mar","08163","Maresme","Barcelona","2.677616015","41.6250522","POINT (2.677616015 41.6250522)","Montgriser, SL"
"Sí","POLICIA LOCAL - 3077LNP","Avinguda","ONZE DE SETEMEBRE","S/N",,"17455","Caldes de Malavella","17033","Selva","Girona",,,,"AJUNTAMENT DE CALDES DE MALAVELLA"
"No","INOXPA","Carrer","dels Telers","65","A LA ENTRADA DE LA FABRICA","17820","Banyoles","17015","Pla de l'Estany","Girona","2.777510256","42.11096512","POINT (2.777510256 42.11096512)","INOXPA"
"No","KANTAR","Passeig","de Gràcia","53","Recepció","08007","Barcelona","08019","Barcelonès","Barcelona","2.164037847","41.39246451","POINT (2.164037847 41.39246451)","COMERCIAL DE PRODUCOTS Y ALQUILERES SA"
"No","AQUOSOS SERVEIS INTEGRALS SL","Carrer","Montmaneu","9","Col.locat a la sala presidencial (Sala VIP)","08700","Igualada","08102","Anoia","Barcelona","1.612537556","41.58875316","POINT (1.612537556 41.58875316)","AQUASOS SERVEIS INTEGRALS S.L.U."
"No","AJUNTAMENT DE MASLLORENÇ","Carrer","Camp de la Bena","25","A LA FAÇANA","43718","Masllorenç","43079","Baix Penedès","Tarragona","1.412656662","41.26882057","POINT (1.412656662 41.26882057)","AJUNTAMENT DE MASLLORENÇ"
"No","AJUNTAMENT DE CALDES D'ESTRAC","Plaça","DE LA VILA","S/N","Sala d'exposicions.","08393","Caldes d'Estrac","08032","Maresme","Barcelona","2.52769689","41.57246571","POINT (2.52769689 41.57246571)","AJUNTAMENT DE CALDES D'ESTRAC"
"No","ABP Ciutat Vella","Carrer","Nou de la Rambla","76","ABP Ciutat Vella","08001","Barcelona","08019","Barcelonès","Barcelona","2.171367259","41.37639531","POINT (2.171367259 41.37639531)","Departament de la Presidència"
"Sí","POLICIA LOCAL - 9056HTL","Plaça","de Francesc Layret","0","COTXE POLICIA LOCAL","08290","Cerdanyola del Vallès","08266","Vallès Occidental","Barcelona",,,,"AJUNTAMENT CERDANYOLA DEL VALLÈS"
"Sí","7221LWC","Plaça","d'en Caritg","0",,"08917","Badalona","08015","Barcelonès","Barcelona",,,,"AJUNTAMENT DE BADALONA"
"No","ATENEU BARCELONÈS","Carrer","Canuda","6","El desfibril·lador es troba degudament senyalitzat i ubicat a la planta baixa de l'edifici","08002","Barcelona","08019","Barcelonès","Barcelona","2.171646869","41.38464874","POINT (2.171646869 41.38464874)","ATENEU BARCELONÈS"
"No","AJUNTAMENT PENELLES","Plaça","Major","1","EXTERIROR CONSULTORI MÈDIC LOCAL","25335","Penelles","25164","Noguera","Lleida","0.965459071","41.75797413","POINT (0.965459071 41.75797413)","AJUNTAMENT PENELLES"
"No","ABP Tremp","Passeig","Pompeu Fabra","6","ABP Tremp","25620","Tremp","25234","Pallars Jussà","Lleida","0.893563406","42.16209942","POINT (0.893563406 42.16209942)","Departament de la Presidència"
"No","AJUNTAMENT DE VILA-SACRA","Carrer","CASTELLÓ","23","VIA PÚBLICA","17485","Vila-sacra","17230","Alt Empordà","Girona","3.018562512","42.26545983","POINT (3.018562512 42.26545983)","AJUNTAMENT DE VILA-SACRA"
"No","Cementiri Municipal Sant Crist","Carrer","de la Seu d'Urgell","5","Recepció","08911","Badalona","08015","Barcelonès","Barcelona","2.251610712","41.453874824","POINT (2.251610712 41.453874824)","AJUNTAMENT DE BADALONA"
"No","LOGARITME SERVEIS LOGISTICS AIE","Carrer","CL MOLÍ D'EN GUINEU (P.I.MOLÍ DEL RACÓ)","18-22","PARET DE MAGATZEM AL COSTAT DE L'ENTRADA ALS VESTUARIS.","08770","Sant Sadurní d'Anoia","08240","Alt Penedès","Barcelona","1.78769937","41.42409436","POINT (1.78769937 41.42409436)","LOGARITME SERVEIS LOGISTICS AIE"
"No","CADERSEM SL","Carretera","DE MANLLEU","14","AL PASSADÍS DELS VESTIDORS, PASSAT EL VESTÍBUL","08500","Vic","08298","Osona","Barcelona","2.255394007","41.93485876","POINT (2.255394007 41.93485876)","CADERSEM SL"
"No","ESCOLA PIA DE CALDES","Avinguda","Josep Fontcuberta","166","PASSADIS ACCES PISTA PAVELLÓ ESPORTIU","08140","Caldes de Montbui","08033","Vallès Oriental","Barcelona","2.170811797","41.6266454","POINT (2.170811797 41.6266454)","ESCOLA PIA DE CALDES"
"No","Barry Callebaut","Carretera","de Barcelona a Puigcerda C-17a","0","En un espai visible i accesible","08503","Gurb","08100","Osona","Barcelona","2.246461819","41.9469971","POINT (2.246461819 41.9469971)","Rudy Eeckman"
"No","FINAF 92 SA","Carrer","OSI","7-9","APROP DE LES ESCALES DE L'EDIFICI","08034","Barcelona","08019","Barcelonès","Barcelona","2.121502363","41.39646378","POINT (2.121502363 41.39646378)","FINAF 92 SA"
"No","AC MARCA - SANT LLORENÇ D'HORTONS","Carrer","Garbí","0","OFICINA","08791","Sant Llorenç d'Hortons","08222","Alt Penedès","Barcelona","1.81018240583","41.47198435654","POINT (1.810182405835 41.471984356538)","GRUPO AC MARCA"
"No","Freixenet, SA","Carrer","Joan Sala","2","bodega sotano-2","08770","Sant Sadurní d'Anoia","08240","Alt Penedès","Barcelona","1.794403107","41.42114216","POINT (1.794403107 41.42114216)","Freixenet, SA"
"No","ZONA ESPORTIVA - GIMNÀS MUNICIPAL","Carrer","DE LA CREUETA","S/N","ENTRADA GIMNAS (INTERIOR)","25282","Sant Llorenç de Morunys","25193","Solsonès","Lleida","1.58985467","42.13413832","POINT (1.58985467 42.13413832)","CE SANT LLORENÇ DE MORUNYS"
"No","ASSISTENCIAL ANOIA, S.A.","Rambla","SANT FERRAN","62","DEA UBICAT EN EL VESTÍBUL","08700","Igualada","08102","Anoia","Barcelona","1.613941772","41.58004512","POINT (1.613941772 41.58004512)","ASSISTENCIAL ANOIA, S.A."
"No","AJUNTAMENT DE RIPOLLET","Rambla","de Sant Esteve","6","DAVANT EL MERCAT MUNICIPAL","08291","Ripollet","08180","Vallès Occidental","Barcelona","2.157995575","41.49848012","POINT (2.157995575 41.49848012)","AJUNTAMENT DE RIPOLLET"
"No","TECHNOLOGY 2050, S.L.","Carrer","LLEIDA","63","ENTRADA OFICINES CENTRALS CONSORCI DE LA ZONA FRANCA","08711","Òdena","08143","Anoia","Barcelona","1.643598824","41.58310624","POINT (1.643598824 41.58310624)","TECHNOLOGY 2050, S.L."
"No","AJUNTAMENT DE CASTELLSERÀ","Avinguda","Catalunya","4","Vestíbul entrada","25334","Castellserà","25070","Urgell","Lleida","0.985847148","41.74688651","POINT (0.985847148 41.74688651)","AJUNTAMENT DE CASTELLSERÀ"
"No","Residència i Centre de dia Gent Gran Porta","Carrer","Maladeta","30","Recepció Residència i Centre de dia Gent Gran Porta","08019","Barcelona","08019","Barcelonès","Barcelona","2.176189683","41.43245951","POINT (2.176189683 41.43245951)","PERE MATA SOCIAL, SA"
"No","EDICIONES URANO, SA","Carrer","ARIBAU","142","Recepció","08036","Barcelona","08019","Barcelonès","Barcelona","2.154939586","41.39184922","POINT (2.154939586 41.39184922)","EDICIONES URANO, SA"
"No","ENTRADA - BONPREU MALLA","Carretera","C-17","0","ENTRADA - BONPREU MALLA","08030","Barcelona","08019","Barcelonès","Barcelona","2.1831202","41.43022518","POINT (2.1831202 41.43022518)","Bon Preu S.A.U."
"No","BIOIBERICA","Avinguda","dels Països Catalans","34","OFICINA","08950","Esplugues de Llobregat","08077","Baix Llobregat","Barcelona","2.094282635","41.37898871","POINT (2.094282635 41.37898871)","BIOIBERICA"
"No","Institut Barcelona Esports","Avinguda","DE L' ESTADI","40","PASILLO VESTUARIOS","08019","Barcelona","08019","Barcelonès","Barcelona","2.151823301","41.3659537","POINT (2.151823301 41.3659537)","INSTITUT BARCELONA ESPORTS"
"No","Saica Celrà","Carrer","Ter","s/n","En una vitrina en el edificio de oficinas.","17460","Celrà","17049","Gironès","Girona","2.869658107","42.03127895","POINT (2.869658107 42.03127895)","SAICA NATUR SL"
"Sí","- 8011LDB","Passeig","dels Sants Cosme i Damià","2",,"17410","Sils","17193","Selva","Girona",,,,"Ajuntament de Sils"
"No","AJUNTAMENT DE JORBA","Carrer","Major","2","SECRETARIA","08719","Jorba","08103","Anoia","Barcelona","1.548847745","41.60170993","POINT (1.548847745 41.60170993)","AJUNTAMENT DE JORBA"
"No","EDIFICI PLURIFAMILIAR","Plaça","de Kobe","12","INSTAL.LAT A CONSERJERIA","08027","Barcelona","08019","Barcelonès","Barcelona","2.193145785","41.42507391","POINT (2.193145785 41.42507391)","BCN HOUSING PLACE S.L."
"No","HUCASVE SL","Carrer","Sant Eloi","6","1a Planta. Centre Enfermería","08038","Barcelona","08019","Barcelonès","Barcelona","2.14327565","41.35604551","POINT (2.14327565 41.35604551)","HUCASVE SL"
"No","Ajuntament de l¿Esquirol","Carrer","NOU","1","VEHICLE : MATRICULA 2770 HGP","08511","Esquirol, l'","08254","Osona","Barcelona","2.368871277","42.03488277","POINT (2.368871277 42.03488277)","Ajuntament de l¿Esquirol"
"No","Merchanservis","Carrer","Motors","150","Ubicat a la zona del parking","08038","Barcelona","08019","Barcelonès","Barcelona","2.148279827","41.351850914","POINT (2.148279827 41.351850914)","MERCHANSERVIS, SA"
"No","IQVIA INFORMATION","Carrer","de Provença","392","RECEPCIÓ","08025","Barcelona","08019","Barcelonès","Barcelona","2.170439632","41.40133982","POINT (2.170439632 41.40133982)","IQVIA INFORMATION, S.A"
"No","CAMPING CALA LLEVADO","Carretera","GI-682","0","Recepció","17320","Tossa de Mar","17202","Selva","Girona","2.932352761","41.71799695","POINT (2.932352761 41.71799695)","AROMIR MASSAGUER SA"
"No","Noatum Logistics Spain","Carrer","de la Mar Roja","52","Recepció","08040","Barcelona","08019","Barcelonès","Barcelona","2.142119163","41.32379269","POINT (2.142119163 41.32379269)","NOATUM LOGISTICS SPAIN"
"No","AJUNTAMENT DE LLEIDA","Plaça","Paeria","1","VESTÍBUL ENTRADA","25007","Lleida","25120","Segrià","Lleida","0.626698901","41.61470635","POINT (0.626698901 41.61470635)","AJUNTAMENT DE LLEIDA"
"No","AJUNTAMENT DE RUPIÀ","Plaça","d'Avall","1","VIA PÚBLICA","17131","Rupià","17153","Baix Empordà","Girona","3.010797038","42.02046323","POINT (3.010797038 42.02046323)","AJUNTAMENT DE RUPIÀ"
"No","Ajuntament","Plaça","del Vi","1","VIA PÚBLICA","17004","Girona","17079","Gironès","Girona","2.824795255","41.98315704","POINT (2.824795255 41.98315704)","Ajuntament"
"No","AJUNTAMENT DE TERRASSA","Carrer","Raval de Montserrat","14","Al hall","08221","Terrassa","08279","Vallès Occidental","Barcelona","2.01027154","41.56296105","POINT (2.01027154 41.56296105)","AJUNTAMENT DE TERRASSA"
"No","UNIÓN INDUSTRIAL PAPELERA, S.A.","Carrer","PAS BLAU","S/N","OFICINES EMPRESA","08787","Pobla de Claramunt, la","08165","Anoia","Barcelona","1.67948534","41.55289198","POINT (1.67948534 41.55289198)","UNIÓN INDUSTRIAL PAPELERA, S.A."
"Sí","1525HWBCatdea","Carrer","de Santa Tecla","32",,"08510","Roda de Ter","08183","Osona","Barcelona",,,,"CATWAS 365 S.L."
"No","PAVELLÓ","Passeig","de Carme Vidal","4","ENTRADA PAVELLÓ","08273","Santa Maria d'Oló","08258","Moianès","Barcelona","2.033979017","41.87787556","POINT (2.033979017 41.87787556)","FUTBOL CLUB OLÓ"
"No","Diputació de Barcelona","Rambla","Catalunya","127","ENTRADA RECEPCIÓ","08008","Barcelona","08019","Barcelonès","Barcelona","2.157908296","41.39490951","POINT (2.157908296 41.39490951)","Diputació de Barcelona"
"No","AJUNTAMENT DE PAU","Plaça","NOVA","S/N","VIA PUBLICA","17494","Pau","17128","Alt Empordà","Girona","3.118373065","42.31635626","POINT (3.118373065 42.31635626)","AJUNTAMENT DE PAU"
"No","COMPAÑIA CERVECERA DAMM, S.L.","Carrer","RONDA DE PONENT","43","SERVICIO MEDICO","08820","Prat de Llobregat, el","08169","Baix Llobregat","Barcelona","2.077719831","41.31817131","POINT (2.077719831 41.31817131)","COMPAÑIA CERVECERA DAMM, S.L."
"No","Ajuntament de Vila-sana","Plaça","Major","4","entrada pavelló","25245","Vila-sana","25252","Pla d'Urgell","Lleida","0.9272863","41.66339073","POINT (0.9272863 41.66339073)","Ajuntament de Vila-sana"
"No","Poligono Industrial Riera del Moli","Carrer","del Mercat","5","OFICINES PLANTA 1","08750","Molins de Rei","08123","Baix Llobregat","Barcelona","2.017925869","41.41210684","POINT (2.017925869 41.41210684)","DSV SOLUTIONS SPAIN S.A.U."
"Sí","- 5961GMY","Passeig","del Bisbe Guillamet","10",,"17800","Olot","17114","Garrotxa","Girona",,,,"Ajuntament d'Olot"
"No","Pistes Poliesportives Parc de Joan Miró","Carrer","d' Aragó","2","Al magatzem de les pistes","08015","Barcelona","08019","Barcelonès","Barcelona","2.14734273","41.37883817","POINT (2.14734273 41.37883817)","ASSOCIACIÓ ESPORTIVA L'EIXAMPLE"
"No","ESCOLA RIUMAR","Carrer","d' Ignasi","26","AL RECINTE","43580","Deltebre","43901","Baix Ebre","Tarragona","0.744832487","40.71952053","POINT (0.744832487 40.71952053)","ESCOLA RIUMAR"
"No","MOLENBERGNATIE","Carrer","F","40","MOLENBERGNATIE","08040","Barcelona","08019","Barcelonès","Barcelona","2.123933328","41.33148395","POINT (2.123933328 41.33148395)","MOLENBERGNATIE ESPAÑA, S.L."
"No","Synthecoat","Carrer","INDÚSTRIA","7","recepcio","08120","Llagosta, la","08105","Vallès Oriental","Barcelona","2.2008667","41.5171225","POINT (2.2008667 41.5171225)","Synthecoat, SLU"
"Sí","- 4678LDS","Passeig","del Bisbe Guillamet","10",,"17800","Olot","17114","Garrotxa","Girona",,,,"Ajuntament d'Olot"
"No","Edifici Til·lers","Passeig","dels Til·lers","15","Recepció planta 0","08034","Barcelona","08019","Barcelonès","Barcelona","2.116760078","41.39001449","POINT (2.116760078 41.39001449)","Barcelona Supercomputing Center"
"No","ESENCIAS MOLES, S.A.","Avinguda","CATALUNYA","11","A L'ENTRADA DE LA FABRICA DE L'EMPRESA","08758","Cervelló","08068","Baix Llobregat","Barcelona","1.960252468","41.39609673","POINT (1.960252468 41.39609673)","ESENCIAS MOLES, S.A."
"No","CAMPING INTERPALS","Carrer","MEDITERRANI","4","RECEPCIÓ","17256","Pals","17124","Baix Empordà","Girona","3.2031469","41.9807521","POINT (3.2031469 41.9807521)","AUNAR GROUP 2009,SL"
"No","-","Carrer","d' Arístides Maillol","6","GARITA SEGURETAT ACCÉS 14","08028","Barcelona","08019","Barcelonès","Barcelona","2.12029334","41.37909007","POINT (2.12029334 41.37909007)","FUTBOL CLUB BARCELONA"
"No","FERRER CAMPING SL","Carretera","L'ESTARTIT","KM 4.8","ENTRADA PRINCIPAL","17258","Torroella de Montgrí","17199","Baix Empordà","Girona","3.129145845","42.04221803","POINT (3.129145845 42.04221803)","FERRER CAMPING SL"
"No","AJUNTAMENT DE das","Carrer","ROSSEN ARÚS","3","VIA PÚBLICA","17538","Das","17061","Cerdanya","Girona","1.872013762","42.36265791","POINT (1.872013762 42.36265791)","AJUNTAMENT DE das"
"No","VORA MAR FENALS, SL","Carrer","Ramon Casas","9","a la recepció de l'Hotel","17310","Lloret de Mar","17095","Selva","Girona","2.835196437","41.6962121","POINT (2.835196437 41.6962121)","VORA MAR FENALS, SL"
"Sí","- 6213 LBR","Carrer","de Cervantes","16",,"17200","Palafrugell","17117","Baix Empordà","Girona",,,,"Ajuntament de Palafrugell"
"Sí","9470MRZ","Camí","DEL RACO","S/N","VEHICLE","43480","Vila-seca","43171","Tarragonès","Tarragona",,,,"INFINITUM RESORT SA"
"No","CLECE SEGURIDAD SAU","Carrer","JOSEP FERRATER I MORA","2","CREMATORIO","08019","Barcelona","08019","Barcelonès","Barcelona","2.212496825","41.40293","POINT (2.212496825 41.40293)","CLECE SEGURIDAD SAU"
"No","INOXCENTER","Carrer","J","13","Oficines","25190","Lleida","25120","Segrià","Lleida","0.676667","41.614552","POINT (0.676667 41.614552)","INOXCENTER, S.L.U."
"No","AJUNTAMENT DE JORBA","Carrer","MAJOR","2",,"08719","Jorba","08103","Anoia","Barcelona","1.548847745","41.60170993","POINT (1.548847745 41.60170993)","AJUNTAMENT DE JORBA"
"No","AJUNTAMENT D'ESPONELLÀ","Plaça","DE L'AJUNTAMENT","1","VIA PÚBLICA","17832","Esponellà","17065","Pla de l'Estany","Girona","2.795425489","42.17734752","POINT (2.795425489 42.17734752)","AJUNTAMENT D'ESPONELLÀ"
"No","Hidropedals Palamós","Passeig","de la Fosca","25","Escola Paddle Surf La Fosca","17230","Palamós","17118","Baix Empordà","Girona","2.026241778","41.59726392","POINT (2.026241778 41.59726392)","Marc Agell Boadella"
"No","AJUNTAMENT DE TARRAGONA","Plaça","De la Font","0","Oficines del Club de Futbol","43003","Tarragona","43148","Tarragonès","Tarragona","1.255168464","41.11706145","POINT (1.255168464 41.11706145)","AJUNTAMENT DE TARRAGONA"
"No","AJUNTAMENT DE CAPELLADES","Carrer","Ramon Godó","9","VEHICLE DE PROTECCIÓ CIVIL B-4439-MX","08786","Capellades","08044","Anoia","Barcelona","1.686002773","41.53162174","POINT (1.686002773 41.53162174)","AJUNTAMENT DE CAPELLADES"
"No","LOOMIS","Carrer","Onyar","63","PARKING VEHICLES INTERIOR","17457","Riudellots de la Selva","17150","Selva","Girona","2.815431467","41.90507152","POINT (2.815431467 41.90507152)","LOOMIS SPAIN SA"
"No","GEDIA","Carrer","de les Illes Balears","11","Nave 1 (hot forming)","08730","Santa Margarida i els Monjos","08251","Alt Penedès","Barcelona","1.652399603","41.32637978","POINT (1.652399603 41.32637978)","GEDIA ESPAÑA SL"
"Sí","- 0825JRS","Carrer","del Solei","2",,"17536","Toses","17201","Ripollès","Girona",,,,"Ajuntament de Toses"
"No","RIALTOHOTEL SL","Carrer","FERRAN","40","ENTRADA PRINCIPAL - ACCÉS ASCENSORS","08002","Barcelona","08019","Barcelonès","Barcelona","2.176391434","41.3820193","POINT (2.176391434 41.3820193)","RIALTOHOTEL SL"
"Sí","- 9644FYK","Avinguda","Diagonal","621","A l'interior del vehícle","08028","Barcelona","08019","Barcelonès","Barcelona",,,,"CRITERIA CAIXA, S.A."
"No","AJUNTAMENT ALPICAT","Carrer","LLEIDA","42","vestibul d'entrada","25110","Alpicat","25023","Segrià","Lleida","0.555592481","41.66586425","POINT (0.555592481 41.66586425)","AJUNTAMENT D'ALPICAT"
"No","CARDIAC FUTURE IDEA, SL","Passeig","VERDAGUER","118","RECEPCIÓ","08700","Igualada","08102","Anoia","Barcelona","1.623438287","41.58002076","POINT (1.623438287 41.58002076)","CARDIAC FUTURE IDEA SL"
"Sí","- 4846-GGL","Carrer","Nou","10","VEHICLE VIGILANT MUNICIPAL","43152","Perafort","43103","Tarragonès","Tarragona",,,,"AJUNTAMENT DE PERAFORT"
"No","SOMGAS, S.A.","Passeig","de Can Feu","14","Tienda","08205","Sabadell","08187","Vallès Occidental","Barcelona","2.093954425","41.54443369","POINT (2.093954425 41.54443369)","SOMGAS, S.A."
"No","Institut Barcelona Esports","Avinguda","DE L' ESTADI","40","SALA DE MATERIAL","08019","Barcelona","08019","Barcelonès","Barcelona","2.151823301","41.3659537","POINT (2.151823301 41.3659537)","INSTITUT BARCELONA ESPORTS"
"No","AJUNTAMENT DE MONTOLIU DE LLEIDA","Carrer","ORIENT","3","A l'àrea de recepció","25172","Montoliu de Lleida","25142","Segrià","Lleida","0.590764508","41.56059639","POINT (0.590764508 41.56059639)","AJUNTAMENT DE MONTOLIU DE LLEIDA"
"No","ABP Ponts","Carretera","de Calaf","0","ABP Ponts","25740","Ponts","25172","Noguera","Lleida","1.192690029","41.90875798","POINT (1.192690029 41.90875798)","Departament de la Presidència"
"No","KEISY SL","Carrer","Consell de Cent","438","Planta Principal","08013","Barcelona","08019","Barcelonès","Barcelona","2.175172049","41.3980618","POINT (2.175172049 41.3980618)","KEISY SL"
"Sí","- 0232 KSH","Passeig","del Bisbe Guillamet","10",,"17800","Olot","17114","Garrotxa","Girona",,,,"Ajuntament d'Olot"
"No","Consell Comarcal del Solsonès","Carrer","dels Dominics","12","Passadís Sala Professors","25280","Solsona","25207","Solsonès","Lleida","1.519315264","41.99511755","POINT (1.519315264 41.99511755)","Consell Comarcal del Solsonès"
"No","DENSO BARCELONA","Carrer","Sakura","1","entrada de personal a la fàbrica","08272","Sant Fruitós de Bages","08213","Bages","Barcelona","1.866197256","41.77701997","POINT (1.866197256 41.77701997)","DENSO BARCELONA"
"Sí","9091LWH","Plaça","d'en Caritg","0",,"08917","Badalona","08015","Barcelonès","Barcelona",,,,"AJUNTAMENT DE BADALONA"
"No","AJUNTAMENT DE MOLLET DEL VALLÈS","Plaça","Major","1","Vehicle de policia","08100","Mollet del Vallès","08124","Vallès Oriental","Barcelona","2.210536454","41.53542459","POINT (2.210536454 41.53542459)","AJUNTAMENT DE MOLLET DEL VALLÈS"
"No","Edifici Benito Arnó e Hijos","Plaça","de l' Ensenyança","1","Ubicat a la sala gran","25002","Lleida","25120","Segrià","Lleida","0.622384594","41.61482245","POINT (0.622384594 41.61482245)","BENITO ARNÓ E HIJOS, SAU"
"Sí","- VEHICLE POLICIAL","Carretera","de Torroella","104",,"17258","Torroella de Montgrí","17199","Baix Empordà","Girona",,,,"AJUNTAMENT DE TORROELLA DE MONTGRÍ"
"No","Casal Gent Gran Can Mercader","Plaça","de Lluís Solà i Escofet","0","Porta exterior del Casal","08911","Badalona","08015","Barcelonès","Barcelona","2.253416851","41.453655242","POINT (2.253416851 41.453655242)","AJUNTAMENT DE BADALONA"
"No","Centre Comercial La Gran Jonquera","Avinguda","Galicia","22","Parking, planta -2, izquierda de la salida del Centro Comercial","17700","Jonquera, la","17086","Alt Empordà","Girona","2.880679412","42.402441455","POINT (2.880679412 42.402441455)","Invest La Jonquera S.L."
"No","AJUNTAMENT PINEDA DE MAR","Carrer","Plaça Catalunya","1","Interior de l'edifici de la policia local, fora de l'abast del públic en general, pero senyalitzat perquè tot el personal sàpiga on és","08397","Perafita","08160","Lluçanès","Barcelona","2.107944751","42.0422562","POINT (2.107944751 42.0422562)","AJUNTAMENT PINEDA DE MAR"
"No","AUNAR GROUP 2009,SL","Carrer","Alcalde Joan Bertran","34-38","RECEPCIÓ","43201","Reus","43123","Baix Camp","Tarragona","1.095927871","41.14986104","POINT (1.095927871 41.14986104)","AUNAR GROUP 2009,SL"
"No","AENA SME, S.A.","Edifici","T1 - DIQUER SUR- P10 PORTA 10","S/N","T1-P30(EMBARQUES NORTE) PARED IS-734","08820","Prat de Llobregat, el","08169","Baix Llobregat","Barcelona","2.094249295","41.33050324","POINT (2.094249295 41.33050324)","AENA SME, SA"
"No","VIA PUBLICA, BIBLIOTECA","Avinguda","dels Països Catalans","0","A la via pública, instal·lat a la façana de la Biblioteca, visible i senyalitzat","08680","Gironella","08092","Berguedà","Barcelona","1.8844187","42.02914396","POINT (1.8844187 42.02914396)","Ajuntament de Gironella"
"No","Ajuntament de Torres de Segre","Plaça","Església","1","Façana exterior de l'Ajuntament","25170","Torres de Segre","25232","Segrià","Lleida","0.513586775","41.53522805","POINT (0.513586775 41.53522805)","AJUNTAMENT DE TORRES DE SEGRE"
"No","ESCLAT","Carrer","Nou","14","A la zona de Caixes de l'establiment, en lloc visible i degudament senyalitzat.","08420","Canovelles","08041","Vallès Oriental","Barcelona","2.281415959","41.62131255","POINT (2.281415959 41.62131255)","Bon Preu S.A.U."
"No","Plaça Fusteret","Carrer","Fusteret","15","Entre el carrer Fusteret i el Camí de la Serra, ubicat a la plaça","08260","Súria","08274","Bages","Barcelona","1.76128354","41.81731905","POINT (1.76128354 41.81731905)","AJUNTAMENT DE SURIA"
"No","-","Plaça","de l' Església","0","Ubicat a la plaça davant de l'Església","25712","Montferrer i Castellbò","25140","Alt Urgell","Lleida","1.35604947","42.37500632","POINT (1.35604947 42.37500632)","AJUNTAMENT DE MONTFERRER I CASTELLBÓ"
"No","AMAZON BCN1","Carrer","de l' Alta Ribagorça","20","ENFERMERIA","08820","Prat de Llobregat, el","08169","Baix Llobregat","Barcelona","2.073035586","41.31201577","POINT (2.073035586 41.31201577)","Amazon Spain Fulfillment, S.L.U."
"No","Complex Esportiu Bahia Mar","Carrer","alberdes","0","El desfibril·lador es troba ubicats en la paret d'entrada al recinte esportiu","43569","Alcanar","43004","Montsià","Tarragona","0.572018","40.601940951","POINT (0.572018 40.601940951)","AJUNTAMENT D'ALCANAR"
"No","AJUNTAMENT BESCANÓ","Plaça","JOAN MARAGALL","3","AJUNTAMENT DE BESCANÓ","17162","Bescanó","17020","Gironès","Girona","2.743313583","41.96547748","POINT (2.743313583 41.96547748)","Ajuntament de Bescanó"
"No","BARCELONA DE SERVEIS MUNICIPALS SA","Carrer","GRAN VIA DE CARLES III","85","OFICINES BSM","08028","Barcelona","08019","Barcelonès","Barcelona","2.126867863","41.385849","POINT (2.126867863 41.385849)","BARCELONA SERVEIS MUNICIPALS SA"
"No","SAMPLING INNOVATIONS EUROPE SL","Carrer","de Can Maurí","28","ESTA SITUACION A PROP DE LA PORTA D'ENTRADA A LES INSTAL·LACIONS, AL COSTAT DE L'ESCALA ACCES A PRIMERA PLANTA (OFICINAS) I DAVANAT DE L'ACCES A PLANTA DE PRODUCCIÓ.","08202","Sabadell","08187","Vallès Occidental","Barcelona","2.138440024","41.54017204","POINT (2.138440024 41.54017204)","SAMPLING INNOVATIONS EUROPE SL"
"No","GIMNASIO VIVA GYM SANTS","Carrer","de Sants","212","EL DESFIBRILADOR ESTÁ INSTALADO EN VITRINA EN LA ENTRADA AL GIMNASIO DONDE ESTÁN LA BICIS","08028","Barcelona","08019","Barcelonès","Barcelona","2.131043774","41.37563138","POINT (2.131043774 41.37563138)","El Gym Iberia, S.L."
"No","CENTRE CÍVIC DEL PLA D'ÒDENA","Carrer","de la Unió","1","FAÇANA CONSULTORI MÈDIC","08711","Òdena","08143","Anoia","Barcelona","1.639584934","41.57951582","POINT (1.639584934 41.57951582)","AJUNTAMENT D'òDENA"
"No","CLAPÉ EDIFICI ADVANCE SANT CUGAT","Avinguda","de la Generalitat","164","EL DEA ES SITUA A L'INTERIOR DE L'EDIFICI I ES TROBA SENYALITZAT.","08174","Sant Cugat del Vallès","08205","Vallès Occidental","Barcelona","2.055269574","41.4921003","POINT (2.055269574 41.4921003)","PRAT BUSINESS PARK SL"
"No","AJUNTAMENT DE LLANARS","Plaça","de l'Om","3","VIA PÚBLICA","17869","Llanars","17091","Ripollès","Girona","2.343937847","42.32058411","POINT (2.343937847 42.32058411)","AJUNTAMENT DE LLANARS"
"No","Conell Comarcal Baix Llobregat","Parc","Torreblanca","1","Ubicat a l'entrada del Consell Comarcal","08980","Sant Just Desvern","08221","Baix Llobregat","Barcelona","2.061901662","41.379638972","POINT (2.061901662 41.379638972)","CONSELL COMARCAL DEL BAIX LLOBREGAT"
"No","Aeropuerto de Girona - Costa Brava","Lloc","AEROPUERTO DE GIRONA - COSTA BRAVA","S/N","Aeropueto de Girona- Costa Brava","17185","Vilobí d'Onyar","17233","Selva","Girona","2.7632421","41.9026788","POINT (2.7632421 41.9026788)","AENA SME, SA"
"No",,"Avinguda","Telecabina","s/n",,"17538","Alp","17006","Cerdanya","Girona","1.886549072","42.37255728","POINT (1.886549072 42.37255728)","DAVID CAMPÀ ROCA"
"No","RESIDÈNCIA D'AVIS","Passeig","d' Àngel Guimerà","6","UBICAT A LA RECEPCIÓ","17534","Ribes de Freser","17145","Ripollès","Girona","2.167729127","42.30450114","POINT (2.167729127 42.30450114)","AJUNTAMENT RIBES DE FRESER"
"No","ABP Castelldefels","Carrer","del Molinot","5","DISPONIBLE PER ELS VEHICLES DE LA COMISSARIA","08860","Castelldefels","08056","Baix Llobregat","Barcelona","1.976410036","41.2750945","POINT (1.976410036 41.2750945)","Departament de la Presidència"
"No","CARDIAC FUTURE IDEA, SL","Passeig","Verdaguer","118","ENTRADA PISCINA","08700","Igualada","08102","Anoia","Barcelona","1.623438287","41.58002076","POINT (1.623438287 41.58002076)","CARDIAC FUTURE IDEA SL"
"No","Compañia Española de Laminación S.L.","Carrer","Ferralla","12","OFICINES, RECEPCIÓ","08755","Castellbisbal","08054","Vallès Occidental","Barcelona","1.977070951","41.45994932","POINT (1.977070951 41.45994932)","Compañia Española de Laminación S.L."
"No","Ajuntament de Cantallops","Carrer","de les Escoles","12","Via pública","17708","Cantallops","17041","Alt Empordà","Girona","2.926555711","42.42277192","POINT (2.926555711 42.42277192)","Ajuntament de Cantallops"
"No","CONSELL CATALÀ DE L'ESPORT","Avinguda","Països Catalans","40-48","Recepció Consell Català de l'Esport","08950","Barcelona","08019","Barcelonès","Barcelona","2.141428382","41.3798419","POINT (2.141428382 41.3798419)","CONSELL CATALÀ DE L'ESPORT"
"No","METRO LINEA 3 DIAGONAL","Carrer","DIAGONAL","0","METRO LINEA 3 DIAGONAL","08008","Barcelona","08019","Barcelonès","Barcelona","2.160444836","41.396637148","POINT (2.160444836 41.396637148)","FERROCARRIL METROPOLITÀ DE BARCELONA SA"
"No","ESTACIÓ RODALIES SABADELL NORD","Plaça","d' Espanya","13","Vestíbul de l'Estació davant de les barreres tarifaries 41,561691 / 2,095986","08207","Sabadell","08187","Vallès Occidental","Barcelona","2.095905117","41.562492171","POINT (2.095905117 41.562492171)","RENFE VIAJEROS S.M.E., S.A."
"No","FUNDACIÓ ESCOLES GARBÍ","Rambla","CATALUNYA","17","VESTUARIS","08007","Barcelona","08019","Barcelonès","Barcelona","2.166541083","41.38858204","POINT (2.166541083 41.38858204)","FUNDACIÓ ESCOLES GARBÍ"
"No","Pitch & Putt Montseny","Edifici","Finca Can Cambó, Crta. de Gualba","0","Recepción","08474","Gualba","08097","Vallès Oriental","Barcelona","2.5215005","41.7159652","POINT (2.5215005 41.7159652)","Montsey Esportiu, S.L."
"No","Ajuntament de Vidreres","Carrer","DE GIRONA","3","VIA PÚBLICA","17411","Vidreres","17213","Selva","Girona","2.777038012","41.79025317","POINT (2.777038012 41.79025317)","Ajuntament de Vidreres"
"No","AJUNTAMENT D'AMPOSTA","Plaça","ESPANYA","2-4","Ubicació diversa segons cotxe de la Policia Local","43870","Amposta","43014","Montsià","Tarragona","0.580954789","40.71314589","POINT (0.580954789 40.71314589)","AJUNTAMENT D'AMPOSTA"
"No","Ajuntament de Vic","Carrer","Ciutat","1","A L'ENTRADA PRINCIPAL DEL TEATRE","08500","Vic","08298","Osona","Barcelona","2.255085895","41.92979933","POINT (2.255085895 41.92979933)","Ajuntament de Vic"
"No","INSTITUCIÓ FAMILIAR D'EDUCACIÓ LES ALZINES","Passeig","Manuel Girona","73","Equip ubicat dins el seu armari enfront les pistes esportives, a l'exterior","08019","Barcelona","08019","Barcelonès","Barcelona","2.128472636","41.39258462","POINT (2.128472636 41.39258462)","INSTITUCIÓ FAMILIAR D'EDUCACIÓ LES ALZINES"
"No","PALAU MONTAGUT","Carrer","Santa Anna","3","Entrada de la primera planta","43500","Tortosa","43155","Baix Ebre","Tarragona","0.52218332","40.814878118","POINT (0.52218332 40.814878118)","Diputació de Tarragona"
"No","RESTAURANT EL FORN","Carrer","del Bell Aire","15","EXTERIOR","17867","Camprodon","17039","Ripollès","Girona","2.480559273","42.320962592","POINT (2.480559273 42.320962592)","AJUNTAMENT DE CAMPRODÓN"
"No","GENERALITAT DE CATALUNYA","Carrer","Vista Alegre","5","Vehicle policial de la Regió Policial de Girona amb mobilitat diària per la província de Girona","17004","Girona","17079","Gironès","Girona","2.82522954","41.9776807","POINT (2.82522954 41.9776807)","Departament de la Presidència"
"No","METRO LINEA 5 EL CARMEL","Carrer","del Llobregós","169","METRO LINEA 5 EL CARMEL","08032","Barcelona","08019","Barcelonès","Barcelona","2.154801842","41.423452166","POINT (2.154801842 41.423452166)","FERROCARRIL METROPOLITÀ DE BARCELONA SA"
"No","BAYER HISPANIA, S.L","Avinguda","BAIX LLOBREGAT","3","EDIFICI NUM. 2","08970","Sant Joan Despí","08217","Baix Llobregat","Barcelona","2.07622579","41.37222415","POINT (2.07622579 41.37222415)","BAYER HISPANIA, S.L"
"No","AJUNTAMENT D'AGULLANA","Carrer","LLUIS GOMIS","2","VIA PUBLICA","17707","Agullana","17001","Alt Empordà","Girona","2.847013804","42.39363442","POINT (2.847013804 42.39363442)","AJUNTAMENT D'AGULLANA"
"No","SOREA, SOCIEDAD REGIONAL DE ABASTECIMIENTO DE AGUAS S.A.U.","Passeig","Zona Franca","48","depuradora d'aigua residual","08038","Barcelona","08019","Barcelonès","Barcelona","2.144128914","41.35354024","POINT (2.144128914 41.35354024)","SOREA, SOCIEDAD REGIONAL DE ABASTECIMIENTO DE AGUAS S.A.U."
"No","Campus Diagonal Nord-VERTEX","Plaça","d' Eusebi Güell","6","Ubicat a l'entrada de la planta baixa","08034","Barcelona","08019","Barcelonès","Barcelona","2.114388148","41.390416512","POINT (2.114388148 41.390416512)","UNIVERSITAT POLITÈCNICA DE CATALUNYA"
"No","Novotel Barcelona City","Avinguda","Diagonal","201","Recepció.","08018","Barcelona","08019","Barcelonès","Barcelona","2.191087818","41.40408199","POINT (2.191087818 41.40408199)","Novotel Barcelona City"
"No","AJUNTAMENT DE CALONGE DE SEGARRA","Carrer","ESCOLES DUSFORT","S/N","COSTAT BÚSTIES DEL NUCLI D'ALENY.","08281","Calonge de Segarra","08036","Anoia","Barcelona","1.494895794","41.7401996","POINT (1.494895794 41.7401996)","AJUNTAMENT DE CALONGE DE SEGARRA"
"No","LOCAL SOCIAL CAN GARRIGA","Carrer","de Can Garriga","3","UBICAT A LA FAÇANA PRINCIPAL","08553","Seva","08269","Osona","Barcelona","2.252334712","41.79589621","POINT (2.252334712 41.79589621)","Ajuntament de Seva"
"No","AJUNTAMENT DE MOLINS DE REI","Plaça","CATALUNYA","1","AULA CECOPAL (PRIMERA PLANTA, DEPENDÈNCIES GUÀRDIA URBANA)","08750","Molins de Rei","08123","Baix Llobregat","Barcelona","2.016037267","41.41363593","POINT (2.016037267 41.41363593)","AJUNTAMENT DE MOLINS DE REI"
"No","AJUNTAMENT DE MONTCADA I REIXAC","Avinguda","DE LA UNITAT","6","ENTRADA PRINCIPAL","08110","Montcada i Reixac","08125","Vallès Occidental","Barcelona","2.187355769","41.47954093","POINT (2.187355769 41.47954093)","AJUNTAMENT DE MONTCADA I REIXAC"
"No","Ajuntament de Sant Feliu de Guíoxls","Plaça","DEL MERCAT","6-9","VIA PÚBLICA","17220","Sant Feliu de Guíxols","17160","Baix Empordà","Girona","3.028735923","41.78070807","POINT (3.028735923 41.78070807)","Ajuntament Sant Feliu de Guíxols"
"No","CAMP DE FUTBOL PLANADEU ROUREDA","Carrer","MARTINET","S/N","PASSADIS VESTUARIS","08207","Sabadell","08187","Vallès Occidental","Barcelona","2.082163347","41.56989929","POINT (2.082163347 41.56989929)","CLUB FUTBOL PLANADEU ROUREDA"
"No","AJUNTAMENT DE VILADAMAT","Carrer","ESCOLES","3","VIA PÚBLICA","17137","Viladamat","17217","Alt Empordà","Girona","3.074208489","42.13393653","POINT (3.074208489 42.13393653)","AJUNTAMENT DE VILADAMAT"
"No","CARDIOSOS GLOBAL PROTECTION S.L.","Avinguda","Europa cantonada Abat Oliva","8","Entrada del centre social","08700","Igualada","08102","Anoia","Barcelona","1.61838971","41.57867362","POINT (1.61838971 41.57867362)","CARDIOSOS GLOBAL PROTECTION S.L."
"No","POLICIA MUNICIPAL","Plaça","De la Vila","1","ÀREA DE PATRULLES.","25100","Almacelles","25019","Segrià","Lleida","0.43691495767","41.73167733105","POINT (0.436914957672 41.731677331054)","AJUNTAMENT D'ALMACELLES"
"No","Edificio3","Camí","Can Ametller","34","Zona Común, vestibulo Planta 1","08195","Sant Cugat del Vallès","08205","Vallès Occidental","Barcelona","2.0474281","41.4796893","POINT (2.0474281 41.4796893)","BUREAU VERITAS INVERSIONES, S.L."
"No","AJUNTAMENT DE SANT CLIMENT SESCEBES","Carrer","MAGRE","21","VIA PÃ¿BLICA","17751","Sant Climent Sescebes","17158","Alt Empordà","Girona","2.980654633","42.36930676","POINT (2.980654633 42.36930676)","AJUNTAMENT DE SANT CLIMENT SESCEBES"
"No","BIOIBERICA","Carrer","ANTIC CAMI DE TORDERA","109","SALA DE CONTROL CENTRAL","08389","Palafolls","08155","Maresme","Barcelona","2.742802","41.688517","POINT (2.742802 41.688517)","BIOIBERICA"
"No","DIPUTACIÓ DE LLEIDA","Carrer","Carme","26","Entrada (dreta)","25007","Lleida","25120","Segrià","Lleida","0.629440878","41.61803687","POINT (0.629440878 41.61803687)","DIPUTACIÓ DE LLEIDA"
"No",,"Carrer","Pallars","13","Maleter","25500","Pobla de Segur, la","25171","Pallars Jussà","Lleida","0.967617003","42.25133728","POINT (0.967617003 42.25133728)","David Marc Besó Tudel"
"No","Casa Federico","Plaça","del Poble","1","Paret Exterior Casa Federico","25571","Lladorre","25123","Pallars Sobirà","Lleida","1.24982234413","42.62115131843","POINT (1.24982234413 42.621151318429)","AJUNTAMENT DE LLADORRE"
"No","PAVELLÓ MUNICIPAL D'ESPORTS MARIA VÍCTOR","Passeig","de la Carrerada","55","AL COSTAT DE LA PORTA D'ENTRADA","08184","Palau-solità i Plegamans","08156","Vallès Occidental","Barcelona","2.1757221","41.5858381","POINT (2.1757221 41.5858381)","AJUNTAMENT DE PALA-SOLITÀ I PLEGAMAS"
"No","Centro de recuperación","Carrer","d' Eugeni d'Ors","20","En una estantería accessible, sense clau, en un despatx.","08980","Sant Feliu de Llobregat","08211","Baix Llobregat","Barcelona","2.044338358","41.38231593","POINT (2.044338358 41.38231593)","Juan Cabezas Sebastian"
"No","AJUNTAMENT DE LLEIDA","Plaça","Paeria","1","A L'INTERIOR DEL PAVELLÓ","25007","Lleida","25120","Segrià","Lleida","0.626698901","41.61470635","POINT (0.626698901 41.61470635)","AJUNTAMENT DE LLEIDA"
"No","LGAI Technological Center SA","Ronda","de la font del carme","0","Ubicado en el vestíbulo de entrada al edificio F","08193","Cerdanyola del Vallès","08266","Vallès Occidental","Barcelona","2.107825669","41.497535","POINT (2.107825669 41.497535)","LGAI Technological Center SA"
"No","Hager Industrial, a La Roca del Vallès","Carrer","Alfred Nobel","18","Sala primers auxilis","08320","Roca del Vallès, la","08181","Vallès Oriental","Barcelona","2.308288967","41.595063274","POINT (2.308288967 41.595063274)","Hager Industrial de Envolventes S.A.U"
"No","AJUNTAMENT DE TORREFARRERA","Carrer","MAJOR","35","ZONA SUPERIOR DEL PAVELLÓ - A LES GRADES","25123","Torrefarrera","25228","Segrià","Lleida","0.606929764","41.67319393","POINT (0.606929764 41.67319393)","AJUNTAMENT DE TORREFARRERA"
"No","Ajuntament d'Olot","Passeig","Bisbe Guillamet","10","VIA PÚBLICA","17800","Olot","17114","Garrotxa","Girona","2.484729275","42.18317419","POINT (2.484729275 42.18317419)","Ajuntament d'Olot"
"No","HOTEL LA COSTA","Carrer","Arenales de Mar","3","Entrada oficina del hall de recepció.","17256","Pals","17124","Baix Empordà","Girona","3.146064367","41.97098436","POINT (3.146064367 41.97098436)","BALADE SL"
"No","Amazon Logistics (DCT4)","Avinguda","de Can Rosers","11","Es troba situat a l'escriptori de el personal de seguretat","08191","Rubí","08184","Vallès Occidental","Barcelona","2.032303836","41.49230338","POINT (2.032303836 41.49230338)","AMAZON ROAD TRANSPORT SPAIN, S.L. (AMAZON)"
"No","CENTRE CULTURAL MARATA","Barri","MARATA","531","FAÇANA PRINCIPAL","08520","Franqueses del Vallès, les","08086","Vallès Oriental","Barcelona","2.300418682","41.64915109","POINT (2.300418682 41.64915109)","PATRONAT MUNICIPAL D'ESPORTS DE LES FRANQUESES DEL VALLÈS"
"No","NH HOTELES ESPAÃ`A, S.A.","Carrer","TRAVASSERA DE LES CORTS","144","PLANTA 1, GALERIA SALONS DE CONVENCIONS","08028","Barcelona","08019","Barcelonès","Barcelona","2.126637473","41.38116195","POINT (2.126637473 41.38116195)","NH HOTELES ESPAÑA, S.A."
"No","UBOX 2014, SL","Carrer","Escultor Llimona","14","AL CANTÓ DE RECEPCIÓ, A L'ENTRADA","08031","Barcelona","08019","Barcelonès","Barcelona","2.169601668","41.42793136","POINT (2.169601668 41.42793136)","UBOX 2014, SL"
"No","CLUB NATACIÓ SANT CUGAT","Camí","DEL CRIST TREBALLADOR","S/N","Recepció","08173","Sant Cugat del Vallès","08205","Vallès Occidental","Barcelona","2.094382942","41.46501534","POINT (2.094382942 41.46501534)","CLUB NATACIÓ SANT CUGAT"
"No","DEPURADORES D OSONA S.L.","Carrer","RAIMON D¿ABADAL I VINYALS","5","EDIFICI DE CONTROL","08500","Vic","08298","Osona","Barcelona","2.246321844","41.92739218","POINT (2.246321844 41.92739218)","DEPURADORES D OSONA S.L."
"No","SOC SANTA COLOMA DE GRAMANET","Carrer","RAMON BERENGUER IV","S/N","UBICAT A L'ENTRADA","08924","Santa Coloma de Gramenet","08245","Barcelonès","Barcelona","2.209005488","41.4584143","POINT (2.209005488 41.4584143)","Servei Públic d¿Ocupació de Catalunya"
"No","BRENNTAG","Carrer","jordi camp","31-33","vestíbul principal, davant de l'ascensor que hi ha darrera de les vitrines","08403","Granollers","08096","Vallès Oriental","Barcelona","2.276428925","41.60132571","POINT (2.276428925 41.60132571)","BRENNTAG QUÍMICA SA"
"No","CEIP IGNASI IGLESIAS","Carrer","de Marià Benlliure","29","AL RECINTE","08940","Cornellà de Llobregat","08073","Baix Llobregat","Barcelona","2.072043297","41.3640836","POINT (2.072043297 41.3640836)","AJUNTAMENT DE CORNELLÀ DE LLOBREGAT"
"No","GENERALITAT DE CATALUNYA","Plaça","de Sant Jaume","4","Vehicle policial de la Regió Policial de Girona amb mobilitat diària pel territori de Girona","08002","Barcelona","08019","Barcelonès","Barcelona","2.176800531","41.38280624","POINT (2.176800531 41.38280624)","Departament de la Presidència"
"Sí","- VEHICLE POLICIAL","Carretera","de Torroella","104",,"17258","Torroella de Montgrí","17199","Baix Empordà","Girona",,,,"AJUNTAMENT DE TORROELLA DE MONTGRÍ"
"No","Cardio Guard Systems, SL","Carrer","CASTILLEJOS","437-439","ENTRADA RECEPCIÓ, SOTA EL BOTIQUIN","08024","Barcelona","08019","Barcelonès","Barcelona","2.167691249","41.41479621","POINT (2.167691249 41.41479621)","Cardio Guard Systems, SL"
"No","Ajuntament de Sant Just Desvern","Plaça","Verdaguer","2","Vestíbul entrada.","08960","Sant Just Desvern","08221","Baix Llobregat","Barcelona","2.075565431","41.38593278","POINT (2.075565431 41.38593278)","AJUNTAMENT DE SANT JUST DESVERN"
"No","ACOSU","Carrer","PERE QUART","1","HALL D¿ENTRADA, PLANTA BAIXA DE L¿EDIFICI","08750","Molins de Rei","08123","Baix Llobregat","Barcelona","2.023068758","41.41354976","POINT (2.023068758 41.41354976)","ACOSU"
"No","AJUNTAMENT DE VILANOVA I LA GELTRU","Plaça","DE LA VILA","8","ENTRADA PRINCIPAL","08800","Vilanova i la Geltrú","08307","Garraf","Barcelona","1.725989257","41.22410006","POINT (1.725989257 41.22410006)","AJUNTAMENT DE VILANOVA I LA GELTRU"
"No","CELLNEX","Passeig","de la Zona Franca","105","PLANTA 15, PASSADÍS COSTAT PASSEIG ZONA FRANCA.","08038","Barcelona","08019","Barcelonès","Barcelona","2.140876798","41.35726264","POINT (2.140876798 41.35726264)","CELLNEX TELECOM S.A."
"No","ESCUELA INTERNACIONAL DE PROTOCOLO SL","Avinguda","GRAN VIA DE LES CORTS CATALANES","474","HALL DE L'ESCOLA","08015","Barcelona","08019","Barcelonès","Barcelona","2.155769885","41.37969501","POINT (2.155769885 41.37969501)","ESCUELA INTERNACIONAL DE PROTOCOLO SL"
"No","FUNDACIO CATALUNYA LA PEDRERA","Passeig","DE GRACIA","92","PASSADIS PRINCIPAL ENTRADA MAGATZEM","08008","Barcelona","08019","Barcelonès","Barcelona","2.161580595","41.3952617","POINT (2.161580595 41.3952617)","FUNDACIO CATALUNYA LA PEDRERA"
"No","COSTA FOOD MEAT","Carrer","Sant LLorenç Desmunts","40","Interior oficines","08500","Vic","08298","Osona","Barcelona","2.255480678","41.93048384","POINT (2.255480678 41.93048384)","COSTA FOOD MEAT"
"No","7 i TRIA, SA","Carretera","Barcelona","83","A L'INTERIOR DE LES INSTAL·LACIONS","08740","Sant Andreu de la Barca","08196","Baix Llobregat","Barcelona","1.975438081","41.44758405","POINT (1.975438081 41.44758405)","7 i TRIA, SA"
"No","ESTACIÓ RODALIES EL PRAT DE LLOBREGAT","Passatge","de l' Estació","1","Vestíbul de l'Estació, davant de la taquilla al costat de l'accés principal a l'estació, 41,331036 / 2,089768","08820","Prat de Llobregat, el","08169","Baix Llobregat","Barcelona","2.091007854","41.33092858","POINT (2.091007854 41.33092858)","RENFE VIAJEROS S.M.E., S.A."
"No","Escola Bressol Colors","Plaça","de Fra Bernadi","6","AL COSTAT RECEPCIÓ, PLANTA BAIXA","08560","Manlleu","08112","Osona","Barcelona","2.283640326","41.99994219","POINT (2.283640326 41.99994219)","Ajuntament de Manlleu"
"No","MAKRO","Polígon","CARRER 100","9","ZONA DE FICHAR","08820","Prat de Llobregat, el","08169","Baix Llobregat","Barcelona","2.086472376","41.30898657","POINT (2.086472376 41.30898657)","SALVESEN LOGISTICA, S.A"
"No","AJUNTAMENT DE CANET DE MAR","Carrer","Ample","11","vestíbul d'entrada","08360","Canet de Mar","08040","Maresme","Barcelona","2.581949","41.58832601","POINT (2.581949 41.58832601)","AJUNTAMENT DE CANET DE MAR"
"No","Poliesportiu-Piscines","Carrer","Raval","70","Façana Exterior Poliesportiu-Piscines","25186","Llardecans","25125","Segrià","Lleida","0.545704659","41.37236758","POINT (0.545704659 41.37236758)","AJUNTAMENT DE LLARDECANS"
"No","AJUNTAMENT DE L'ARBOÇ","Carrer","MAJOR","26","Entrada","43720","Arboç, l'","43016","Baix Penedès","Tarragona","1.603752174","41.26776008","POINT (1.603752174 41.26776008)","AJUNTAMENT DE L'ARBOÇ"
"No","GIMNASIO VIVA GYM","Carrer","DEL PEGAS","9","EL DESFIBRILADOR ESTÁ INSTALADO EN LA RECEPCION CON VITRINA Y SEÑALIZACION","08027","Barcelona","08019","Barcelonès","Barcelona","2.141206216","41.38437039","POINT (2.141206216 41.38437039)","El Gym Iberia, S.L."
"No","Fisher Scientific","Carrer","d' Aiguafreda","22","Situat a la meitat de la pared  on  hi han els  molls de càrrega,  just al costat de la dutxa d¿emergència.","08480","Ametlla del Vallès, l'","08005","Vallès Oriental","Barcelona","2.271468061","41.65118253","POINT (2.271468061 41.65118253)","Fisher Scientific, S.L."
"No","RESIDENCIA TEMPLIS ATLANTIS","Avinguda","catalunya","18","LA SALA PRINCINPAL DEL EDIFICIO","08880","Cubelles","08074","Garraf","Barcelona","1.6722","41.2073","POINT (1.6722 41.2073)","TEMPLIS ATLANTIS"
"No","PROMOCIONES PORTUARIAS, SA","Carrer","Edifici Capitania","SN","Entrada del Port Esportiu","08320","Masnou, el","08118","Maresme","Barcelona","2.317480667","41.47921977","POINT (2.317480667 41.47921977)","PROMOCIONES PORTUARIAS, SA"
"No","Edifici Fes Salut","Carrer","Henri Dunant","1","Entrada de l'edifici Fes Salut","25005","Lleida","25120","Segrià","Lleida","0.610165876","41.61676046","POINT (0.610165876 41.61676046)","AJUNTAMENT DE LLEIDA"
"No","LLUCH ESSENCE, S.L.","Carrer","del Gaiter del Llobregat","160","Pasillo que comunica la zona de laboratorio con almacén.","08820","Prat de Llobregat, el","08169","Baix Llobregat","Barcelona","2.103686089","41.33216214","POINT (2.103686089 41.33216214)","LLUCH ESSENCE, S.L."
"No","ZAMBON","Carrer","del Maresme","5","ACCESO EDIFICIO PLANTA","08130","Santa Perpètua de Mogoda","08260","Vallès Occidental","Barcelona","2.178547835","41.55008797","POINT (2.178547835 41.55008797)","EXTERNALIZACION DE SERVICIOS Y COMPRAS PARA LA INTEGRACION DE DISCAPACITADO"
"No","DEPARTAMENT DE TREBALL, AFERS SOCIALS I FAMÍLIES","Carrer","de Sepúlveda","148","Vestíbul de la planta baixa","08011","Barcelona","08019","Barcelonès","Barcelona","2.160687635","41.38169385","POINT (2.160687635 41.38169385)","Departament de la Presidència"
"No","GRUPO MASSIMO DUTTI, S.A.","Carretera","TORDERA A PALAFOLLS, KM 0,6","S/N","RECEPCION 1ª PLANTA","08490","Tordera","08284","Maresme","Barcelona","2.71936849","41.70159435","POINT (2.71936849 41.70159435)","GRUPO MASSIMO DUTTI, S.A."
"No","EUROZONE CAPITAL SA","Avinguda","Diagonal","67","Recepció a la dreta dels ascensors","08019","Barcelona","08019","Barcelonès","Barcelona","2.208439255","41.40842801","POINT (2.208439255 41.40842801)","EUROZONE CAPITAL SA"
"No","Caixabank, Planta baja","Avinguda","Diagonal","621","En una vitrina en la zona intermedia.","08028","Barcelona","08019","Barcelonès","Barcelona","2.126553825","41.38766419","POINT (2.126553825 41.38766419)","CaixaBank Facilities Management, S.A."
"No","Natura Bissé","Carrer","Creu Cases i Sicart","96-102","Recepció","08290","Cerdanyola del Vallès","08266","Vallès Occidental","Barcelona","2.141713263","41.4912995","POINT (2.141713263 41.4912995)","Natura Bisse International, S.A."
"No","AUTORIDAD PORTUARIA DE BARCELONA","Edifici","WTC- MOLL DE BARCELONA EDIF. EST","S/N","Recepció Zona Esportiva","08039","Barcelona","08019","Barcelonès","Barcelona","2.178172664","41.38271128","POINT (2.178172664 41.38271128)","AUTORIDAD PORTUARIA DE BARCELONA"
"No","VICINANZA TRADING SL","Carrer","SANT FERRAN","68","En la 1a. planta, en una vitrina al costat de recepció.","08940","Cornellà de Llobregat","08073","Baix Llobregat","Barcelona","2.090524109","41.34721935","POINT (2.090524109 41.34721935)","VICINANZA TRADING SL"
"No","URBANITZACIÓ L'ESPARRA","Carretera","L'ESPARRA","36","DEA UBICAT A LA CASETA DE LES BUSTIES","17421","Riudarenes","17148","Selva","Girona","2.718177317","41.82258288","POINT (2.718177317 41.82258288)","AJUNTAMENT RIUDARENES"
"No","Relieves Egara","Carrer","del Pisuerga","27","ALL4Labels Recepció","08223","Terrassa","08279","Vallès Occidental","Barcelona","2.034965596","41.55057262","POINT (2.034965596 41.55057262)","CORDIS PIRENAICA SL"
"No","ESTADI JOSEP BOVÉ","Carrer","de Colom","0","ENTRADA VESTUARIS LOCALS","43700","Vendrell, el","43163","Baix Penedès","Tarragona","1.538229695","41.22343774","POINT (1.538229695 41.22343774)","CLUB D'ESPORTS VENDRELL"
"No","CASINO DE TIANA","Carrer","EDITH LLAURADOR","4","Passadís entre bar i masía","08391","Tiana","08282","Maresme","Barcelona","2.2676358","41.486325","POINT (2.2676358 41.486325)","ASSOCIACIÓ CASINO DE TIANA"
"No","PLATING BRAP SA","Avinguda","EUROPA","8","PASSADIS AL COSTA DE L'ESCALA D'ACCÈS ALS VESTIDORS","08700","Igualada","08102","Anoia","Barcelona","1.626657236","41.59292196","POINT (1.626657236 41.59292196)","PLATING BRAP SA"
"No","Escola Ciutat Jardí","Carrer","Carmel Fenech","s/n","PASSADÍS PLANTA BAIXA PRIMÀRIA, DAVANT SALA DE MESTRES","25199","Lleida","25120","Segrià","Lleida","0.609561861","41.62612012","POINT (0.609561861 41.62612012)","Escola Ciutat Jardí"
"No","GLOBAL PADEL SPORTS","Carrer","dels Matalassers","8","COLUMNA DELANTE DE LA BARRA DEL BAR","43204","Reus","43123","Baix Camp","Tarragona","1.15613976","41.11918893","POINT (1.15613976 41.11918893)","FORTY PADEL, S.L"
"No","BERTSCHI CONTAINER TRANSPORT SL","Polígon","Riu clar carrer de l'or (edifici Lavaflix oficina 8)","s/n","oficina departament de trànsit, lateral dret","43006","Tarragona","43148","Tarragonès","Tarragona","1.256503155","41.11692543","POINT (1.256503155 41.11692543)","BERTSCHI CONTAINER TRANSPORT SL"
"No","Pavelló la Nòria","Passeig","Josep Maria Oller","s/n","A la façana al costat de l'entrada del pavelló la Nòria","17430","Santa Coloma de Farners","17180","Selva","Girona","2.663787521","41.8640659","POINT (2.663787521 41.8640659)","Ajuntament de Santa Coloma de Farners"
"No","AEAT DELEGACION CENTRAL GRANDES CONTRIBUCIONES","Carrer","Oviedo","30-32","INSTAL·LAT AL LLOC DE CONTROL (ABANS D'ENTRAR)","17005","Girona","17079","Gironès","Girona","2.813281154","41.97188609","POINT (2.813281154 41.97188609)","AEAT DELEGACION CENTRAL GRANDES CONTRIBUCIONES"
"Sí","5343GNZ / Motocicleta Protecció Civil","Plaça","de la Vila","1","Motocicleta, estacionament a seu de comissaria de Policia Local i Protecció Civil","17310","Lloret de Mar","17095","Selva","Girona",,,,"AJUNTAMENT DE LLORET DE MAR"
"No","Cardio Guard Systems, SL","Carrer","Castillejos","437-439","EN LA RECEPCIÓ, VISIBLE","08024","Barcelona","08019","Barcelonès","Barcelona","2.167691249","41.41479621","POINT (2.167691249 41.41479621)","Cardio Guard Systems, SL"
"No","Pons Tradició, SL","Avinguda","de les Garrigues","16","Sala d'embotellat.","25155","Albagés, l'","25006","Garrigues","Lleida","0.73964059","41.44862692","POINT (0.73964059 41.44862692)","Pons Tradició, SL"
"No","Col·legi Lestonnac DE LLEIDA","Avinguda","de Prat de la Riba","38","Col·legi Lestonnac - entrada","25008","Lleida","25120","Segrià","Lleida","0.623091396","41.62038466","POINT (0.623091396 41.62038466)","COL.LEGI ESTONNAC LLEIDA"
"No","AJUNTAMENT DE PORQUERES","Carrer","Rubió i Ors","1","VIA PÚBLICA","17834","Porqueres","17137","Pla de l'Estany","Girona","2.789828727","42.10290836","POINT (2.789828727 42.10290836)","AJUNTAMENT DE PORQUERES"
"No","Assocíació Sant Tomas-Parmo","Carrer","Sot del Padrals","7","paret exterior del centre ocupacional","08500","Vic","08298","Osona","Barcelona","2.24895145","41.93777291","POINT (2.24895145 41.93777291)","Assocíació Sant Tomas-Parmo"
"No","BON PREU SAU","Carretera","C-17, KM. 73",".","ENTRADA PRINCIPAL (CAIXES)","08509","Masies de Voltregà, les","08117","Osona","Barcelona","2.251477819","42.01275136","POINT (2.251477819 42.01275136)","Bon Preu S.A.U."
"No","PADEL MASNOU, SL","Carrer","Agricultura","1","A la recepció del Club, mostrador d'entrega de pistes. Visible","08320","Masnou, el","08118","Maresme","Barcelona","2.330606223","41.48312578","POINT (2.330606223 41.48312578)","PADEL MASNOU, SL"
"No","APLI PAPER SAU","Avinguda","ARRAONA","120-124","ZONA COMUN DENTRO DE LA EMPRESA, DISTRIBUYE VESTUARIOS, LAVABOS Y COMEDOR.","08210","Barberà del Vallès","08252","Vallès Occidental","Barcelona","2.147449328","41.52398709","POINT (2.147449328 41.52398709)","APLI PAPER SAU"
"No","BIOCONSERVACION","Carrer","del Vapor","10","ENTRADA DE PERSONAL NAU C.VAPOR, 12","08850","Gavà","08089","Baix Llobregat","Barcelona","2.015264698","41.29879785","POINT (2.015264698 41.29879785)","BIOCONSERVACION SA"
"No","Complex Esportiu Arístides Maillol","Carrer","de Martí i Franquès","19","A la pista poliesportiva","08028","Barcelona","08019","Barcelonès","Barcelona","2.11951597","41.38206342","POINT (2.11951597 41.38206342)","AJUNTAMENT DE BARCELONA - DISTRICTE SARRIÀ SANT GERVASI"
"No","Compañia Española de Laminación S.L.","Carrer","Ferralla","12","ACERIA ALMACEN RECAMBIOS","08755","Castellbisbal","08054","Vallès Occidental","Barcelona","1.977070951","41.45994932","POINT (1.977070951 41.45994932)","Compañia Española de Laminación S.L."
"No","FERROCARRIL METROPOLITÀ BARCELONA, S.A.","Carrer","de Sant Antoni Maria Claret","363","METRO LINEA 1 SAGRERA, ANDANA CENTRAL","08027","Barcelona","08019","Barcelonès","Barcelona","2.187559607","41.42115205","POINT (2.187559607 41.42115205)","FERROCARRIL METROPOLITÀ DE BARCELONA SA"
"No","KUEHNE & NAGEL,S.A.","Carrer","de l' Antàrtic","13","Ubicado en la Oficina del Almacén.","08040","Barcelona","08019","Barcelonès","Barcelona","2.14667501","41.3240294","POINT (2.14667501 41.3240294)","KUEHNE & NAGEL, S.A."
"No","DELEGACIÓN DEL CONSEJO SUPERIOR DE INVESTIGACIONES CIENTÍFICAS EN CATALUÑA","Carrer","Jordi Girona","18 - 26","El desfibril.lador s'ha instal.lat en l'entrada de l'edifici adjacent a l'actual, per tal d'augmentar els punts d'accés a la desfibril.lació.","08034","Barcelona","08019","Barcelonès","Barcelona","2.1144892","41.3875043","POINT (2.1144892 41.3875043)","DELEGACIÓN DEL CONSEJO SUPERIOR DE INVESTIGACIONES CIENTÍFICAS EN CATALUÑA"
"No","PEROXICHEAM SPAIN SLU","Carrer","BEETHOVEN","15","ENTRANT A L'OFICINA A L'ESQUERRA PRÒXIM A L'ÀREA DE LA FOTOCOPIADORA","08021","Barcelona","08019","Barcelonès","Barcelona","2.1403347","41.3934364","POINT (2.1403347 41.3934364)","PEROXICHEAM SPAIN SLU"
"Sí","7751KNP","Avinguda","de l' Onze de Setembre","4",,"17455","Caldes de Malavella","17033","Selva","Girona","483,793.55","4,631,989.94","POINT (483793.55 4631989.94)","AJUNTAMENT DE CALDES DE MALAVELLA"
"No","Hotel Ibis Barcelona Mollet","Carrer","de Nicaragua","5","A la recepció","08100","Mollet del Vallès","08124","Vallès Oriental","Barcelona","2.20524597","41.54884076","POINT (2.20524597 41.54884076)","Grape Hospitality Spanish OPCO, SL"
"No","LA PIARA.","Carretera","BV 4608 MANLLEU - LA GLEVA","KM 2,1","A l'interior de les instal·lacions a la planta 0 en zona lliure d'obstacles.","08560","Manlleu","08112","Osona","Barcelona","2.285097785","42.0010323","POINT (2.285097785 42.0010323)","LP FOODIES, S.A.U."
"No","AJUNTAMENT DE L'AMPOLLA","Plaça","Manel Ferré","3","A les oficines del Camp d'esports municipal.","43895","Ampolla, l'","43906","Baix Ebre","Tarragona","0.714413979","40.81430221","POINT (0.714413979 40.81430221)","AJUNTAMENT DE L'AMPOLLA"
"No","GRUPO MASSIMO DUTTI, S.A.","Passeig","de Gràcia","96","ZONA DE CAJAS","08008","Barcelona","08019","Barcelonès","Barcelona","2.161367944","41.39548059","POINT (2.161367944 41.39548059)","GRUPO MASSIMO DUTTI, S.A."
"No","LA SERRETA TENNIS CLUB","Partida","La Serreta","s/n","Entrada local social","25400","Borges Blanques, les","25058","Garrigues","Lleida","0.868894936","41.52124355","POINT (0.868894936 41.52124355)","LA SERRETA TENNIS CLUB"
"No","BOSCH SISTEMAS DE FRENADO, S.L.","Carretera","CALDES A GRANOLLERS KM 8,5","S/N","LLOC DE PAS ENTRE FÀBRICA I OFICINES","08186","Lliçà d'Amunt","08107","Vallès Oriental","Barcelona","2.239149747","41.61108961","POINT (2.239149747 41.61108961)","BOSCH SISTEMAS DE FRENADO, S.L."
"Sí","Adjuntament de Castellbisbal6112-MSH","Avinguda","de Pau Casals","9",,"08755","Castellbisbal","08054","Vallès Occidental","Barcelona","415,146.708","4,592,315.857","POINT (415146.708 4592315.857)","Ajuntament de Castellbisbal"
"No","Auditori Can Roig i Torres","Carrer","de Rafael Casanova","5","Al costat de la porta d'accés a la sala.","08921","Santa Coloma de Gramenet","08245","Barcelonès","Barcelona","2.20925634","41.45306708","POINT (2.20925634 41.45306708)","Ajuntament Santa Coloma de Gramenet"
"No","AQUOSOS SERVEIS INTEGRALS SL","Carrer","Montmaneu","9","Col.locat a la porta 211","08700","Igualada","08102","Anoia","Barcelona","1.612537556","41.58875316","POINT (1.612537556 41.58875316)","AQUASOS SERVEIS INTEGRALS S.L.U."
"No","CONSORCI PARC DE RECERCA BIOMÈDICA DE BARCELONA","Carrer","Dr. Aiguader","88","Recepció edifici planta baixa","08003","Barcelona","08019","Barcelonès","Barcelona","2.19400234","41.38555194","POINT (2.19400234 41.38555194)","CONSORCI PARC DE RECERCA BIOMÈDICA DE BARCELONA"
"No","AJUNTAMENT DE PALLEJÀ","Carrer","del Sol","1","Exterior de l'Ajuntament de Pallejà","08780","Pallejà","08157","Baix Llobregat","Barcelona","1.996810305","41.42264626","POINT (1.996810305 41.42264626)","AJUNTAMENT DE PALLEJÀ"
"No","METRO LINEA 5 ERNEST LLUCH","Carrer","de Collblanc","158","METRO LINEA 5 ERNEST LLUCH","08028","Barcelona","08019","Barcelonès","Barcelona","2.110989611","41.376012568","POINT (2.110989611 41.376012568)","FERROCARRIL METROPOLITÀ DE BARCELONA SA"
"No","Gonvarri","Carrer","de la Ferralla","32","Oficina, Supervisor Corte","08755","Castellbisbal","08054","Vallès Occidental","Barcelona","1.990443598","41.44139367","POINT (1.990443598 41.44139367)","Gonvarri l. Centro de Servicios"
"No","Escola Bressol Colors","Plaça","de Fra Bernadi","6","PARET REPLÀ 1er. PIS ESCALES D'ACCÉS A L'ESCOLA","08560","Manlleu","08112","Osona","Barcelona","2.283640326","41.99994219","POINT (2.283640326 41.99994219)","Ajuntament de Manlleu"
"No","BARCELONA - Cargoparc Sector Sur Zona 4","Carrer","de Felip Diaz Sandino","0","Centro de Carga Aérea del Aeropuerto de Barcelona Cargoparc Sector Sur Zona 4, Parcela III.5A, en el Almacén Zona Baterías.","08830","Sant Boi de Llobregat","08200","Baix Llobregat","Barcelona","2.056743189","41.298658092","POINT (2.056743189 41.298658092)","DACHSER SPAIN SA"
"No","FLAMAGAS LLINARSFLAMAGAS LLINARS","Carrer","dels Horts de la Mina","0","Penjat al costat de l'armari on hi ha els equips de protecció de l'equip d'intervenció","08450","Llinars del Vallès","08106","Vallès Oriental","Barcelona","2.409734881","41.640019699","POINT (2.409734881 41.640019699)","FLAMAGAS LLINARS SL"
"No","AENA SME, S.A.","Edifici","T1 - DIQUER SUR- P10 PORTA 10","S/N","T2-P00 (TB-HALL) HALL TERMINAL B","08820","Prat de Llobregat, el","08169","Baix Llobregat","Barcelona","2.094249295","41.33050324","POINT (2.094249295 41.33050324)","AENA SME, SA"
"No","AJUNTAMENT DE PALAU DE SANTA EULÀLIA","Carrer","Garrigàs","4","Via Pública","17476","Palau de Santa Eulàlia","17119","Alt Empordà","Girona","2.964197726","42.17387762","POINT (2.964197726 42.17387762)","AJUNTAMENT DE PALAU DE SANTA EULÀLIA"
"No","Pavelló Municipal de Pardinyes","Avinguda","de Tortosa","86","Entrada recepció","25005","Lleida","25120","Segrià","Lleida","0.639483038","41.621858853","POINT (0.639483038 41.621858853)","AJUNTAMENT DE LLEIDA"
"Sí","- 0792LNK","Avinguda","de la Farga","84","Anirà situat a la part esquerra del maleter del vehicle","17820","Banyoles","17015","Pla de l'Estany","Girona",,,,"AJUNTAMENT DE BANYOLES (POLICIA LOCAL DE BANYOLES)"
"No","Culmia","Passatge","zona franca","21","Zona comú","08040","Barcelona","08019","Barcelonès","Barcelona","2.075553549","41.53815458","POINT (2.075553549 41.53815458)","ANTEA ACTIVOS INMOBILIARIOS, S.L.U."
"No","PAVELLÓ MUNICIPAL D'ESPORTS DEL MOLI","Avinguda","del Rieral","26","CANTONADA EDIFICI PAVELLÓ MUNICIPAL, AL XAMFRÀ ENTRE AV. RIERAL I AV. SENYORA DE ROSSELL","17310","Lloret de Mar","17095","Selva","Girona","2.840463545","41.70550701","POINT (2.840463545 41.70550701)","AJUNTAMENT DE LLORET DE MAR"
"No","BAYER HISPANIA, S.L","Avinguda","BAIX LLOBREGAT","3","EDIFICI NUM. 1","08970","Sant Joan Despí","08217","Baix Llobregat","Barcelona","2.07622579","41.37222415","POINT (2.07622579 41.37222415)","BAYER HISPANIA, S.L"
"No","SCHÜTZ IBERICA, S.L","Polígon","37 Apartat de Correus,  FINCA 10","83","Accés a les oficines","43480","Vila-seca","43171","Tarragonès","Tarragona","1.146214596","41.11096842","POINT (1.146214596 41.11096842)","SCHÜTZ IBERICA, S.L"
"No","ASPRO CISCO SA","Carrer","MOLL D'ESPANYA DEL PORT VELL",".","PLANTA BAIXA / RECEPCIÓ","08039","Barcelona","08019","Barcelonès","Barcelona","2.183008784","41.37720711","POINT (2.183008784 41.37720711)","ASPRO CISCO SA"
"No","ESCOLA ANTONI GAUDI","Carrer","Pablo Picasso","3","Només entrar a l'edifici, a la dreta. Al costat de la sala de l'AMPA.","08830","Sant Boi de Llobregat","08200","Baix Llobregat","Barcelona","2.036277097","41.34945617","POINT (2.036277097 41.34945617)","ESCOLA ANTONI GAUDI"
"No","REFUGI EL REBOST","Carretera","COLL DE PAL BV-4024","KM 13","DEA UBICAT EN EL REFUGI EL REBOST, A L'INTERIOR.","08695","Bagà","08016","Berguedà","Barcelona","1.863081314","42.25280798","POINT (1.863081314 42.25280798)","AJUNTAMENT DE BAGÀ"
"No","INSTITUT ALT PENEDÈS","Avinguda","Tarragona","s/n","Al costat de la porta de consergeria.","08920","Vilafranca del Penedès","08305","Alt Penedès","Barcelona","1.698386508","41.34411843","POINT (1.698386508 41.34411843)","INSTITUT ALT PENEDÈS"
"No","KEISY SL","Carrer","Consell de Cent","438","Planta Principal","08013","Barcelona","08019","Barcelonès","Barcelona","2.175172049","41.3980618","POINT (2.175172049 41.3980618)","KEISY SL"
"No","itv alt empordà","Carrer","Sant Pau","25","a la recepció","08821","Terrassa","08279","Vallès Occidental","Barcelona","2.013610033","41.56383676","POINT (2.013610033 41.56383676)","Revisions de Vehicles, SA"
"No","Mòdul de salvament de platges (Cala Cristus)","Passeig","de Torre Valentina",,"Mòdul de salvament de la platja de la Cala Cristus a Sant Antoni de Calonge","17252","Calonge i Sant Antoni","17034","Baix Empordà","Girona","3.08736994838","41.83161386325","POINT (3.087369948375 41.831613863247)","Pro-Activa Serveis Aquàtics, SL"
"No","Urbanització Vallpineda - Pas de zebra , St.Dídac,","Passeig","de Sant Dídac","1","Pas de zebra , St.Dídac, 1","08870","Sitges","08270","Garraf","Barcelona","1.800886236","41.245485067","POINT (1.800886236 41.245485067)","AJUNTAMENT DE SITGES"
"No","BERNEDA, SAU","Carrer","GARBÍ","30","SITUAT A L'ENTRADA DE LA NAU, A L'ESQUERRA","08786","Capellades","08044","Anoia","Barcelona","1.684862317","41.52972764","POINT (1.684862317 41.52972764)","BERNEDA, SAU"
"No","Centre Cívic Mariola","Carrer","d' Artur Mor Roig","1","Recepció","25003","Lleida","25120","Segrià","Lleida","0.611392055","41.612727707","POINT (0.611392055 41.612727707)","AJUNTAMENT DE LLEIDA"
"No","CENTRE DE SERVEIS PER A LA GENT GRAN","Carrer","Dolors Gomis","11","Façana Sala Lídia Noguer de l'edifici Asil Gomis.","17707","Agullana","17001","Alt Empordà","Girona","2.847278151","42.39526545","POINT (2.847278151 42.39526545)","AJUNTAMENT D'AGULLANA"
"No","FUNDACIO PRIVADA BANC ALIMENTS COMARQUES DE GIRONA","Carrer","de Palol d'Onyar","3","ENTRANT AL MAGATZEM A LA DRETA EN UN PASSADIS DAVANT DEL LAVABO DE SENYORES","17004","Girona","17079","Gironès","Girona","2.838139702","41.969715104","POINT (2.838139702 41.969715104)","FUNDACIO PRIVADA BANC DELS ALIMENTS DE LES COMARQUES DE GIRONA"
"No","AJUNTAMENT DE CONSTANTI","Carrer","Major","27","Passadis d'entrada","43120","Constantí","43047","Tarragonès","Tarragona","1.213676462","41.15310284","POINT (1.213676462 41.15310284)","AJUNTAMENT DE CONSTANTI"
"No","Gimnàs Municipal de Castellgalí","Carrer","de la Piscina","0","Al vestíbul de l'instal·lació, visible i senyalitzat","08297","Castellgalí","08061","Bages","Barcelona","1.839529616","41.67641686","POINT (1.839529616 41.67641686)","Ajuntament de Castellgalí"
"No","AJUNTAMENT DE SANT QUINTÍ DE MEDIONA","Plaça","Església","4",,"08777","Sant Quintí de Mediona","08236","Alt Penedès","Barcelona","1.663005341","41.46199779","POINT (1.663005341 41.46199779)","AJUNTAMENT DE SANT QUINTÍ DE MEDIONA"
"No","GESTIÓ ECONÒMICA I PATRIMONI DEL SOC","Carrer","LLULL","297","ENTRADA PRINCIPAL","08019","Barcelona","08019","Barcelonès","Barcelona","2.208506223","41.40635088","POINT (2.208506223 41.40635088)","Servei Públic d¿Ocupació de Catalunya"
"No","GYM & FITNESS BCN SL","Carrer","MALLORCA","318","ENTRADA PRINCIPAL / RECEPCIÓ","08037","Barcelona","08019","Barcelonès","Barcelona","2.168145469","41.39790455","POINT (2.168145469 41.39790455)","GYM & FITNESS BCN SL"
"No","Agència Catalana del Patrimoni Cultural","Carrer","Portaferrissa (Palau Moja)","1","GARITA DEL PERSONAL DE VIGILÀNCIA DE LA RECEPCIÓ DEL CENTRE","08002","Barcelona","08019","Barcelonès","Barcelona","2.178172664","41.38271128","POINT (2.178172664 41.38271128)","Agència Catalana del Patrimoni Cultural"
"No","Ajuntament de Llívia","Carrer","de l'Esport","s/n","VIA PÚBLICA","17527","Llívia","17094","Cerdanya","Girona","1.977515256","42.46107032","POINT (1.977515256 42.46107032)","Ajuntament de Llívia"
"No","AJUNTAMENT DE MOIÀ","Plaça","Sant Sebastià","1","Carrer de l'esport porta entrada pavelló poliesportiu porxo exterior paret lateral esquerra.","08180","Moià","08138","Moianès","Barcelona","2.097143","41.81291265","POINT (2.097143 41.81291265)","AJUNTAMENT DE MOIÀ"
"No","AJUNTAMENT DE LA PALMA DE CERVELLO","Carrer","Sant Cristòfol","s/n","Dins del despatx del camp de futbol que queda obert, per part dels responsables del camp, quan hi ha partits i entrenaments","08756","Palma de Cervelló, la","08905","Baix Llobregat","Barcelona","1.971006076","41.41125217","POINT (1.971006076 41.41125217)","AJUNTAMENT DE LA PALMA DE CERVELLO"
"No","AJUNTAMENT DE MATARO","Carrer","LA RIERA","48","ACCÉS","08301","Mataró","08121","Maresme","Barcelona","2.454330537","41.54360876","POINT (2.454330537 41.54360876)","AJUNTAMENT DE MATARÓ"
"No","Comunitat Gal·la Placídia, 1-7","Plaça","de Gal·la Placídia","1","Entrada recepció, enfront de l'ascensor","08006","Barcelona","08019","Barcelonès","Barcelona","2.152924807","41.39857502","POINT (2.152924807 41.39857502)","Comunitat de Propietaris Gal·la Placídia 1 - 7"
"No","AJUNTAMENT DEL MASNOU","Carrer","Prar de la Riba","1","A L'INTERIOR DEL CAMP","08320","Masnou, el","08118","Maresme","Barcelona","2.31914961501","41.47914094222","POINT (2.319149615015 41.479140942223)","AJUNTAMENT DEL MASNOU"
"No","Mabrik S.A.U.","Carrer","de Marconi","66","Entrada almacén_","08210","Barberà del Vallès","08252","Vallès Occidental","Barcelona","2.131271331","41.51425155","POINT (2.131271331 41.51425155)","Mabrik S.A.U."
"No",,"Carrer","NENA CASAS","20","ZONA ACCÉS A L'HABITATGE: PASSADÍS, AL COSTAT DEL TELÈFON","08017","Barcelona","08019","Barcelonès","Barcelona","2.13200052","41.39474329","POINT (2.13200052 41.39474329)","JESUS COSTA VILA"
"No","POLIESPORTIU MUNICIPAL LES PLANES","Carrer","SANT RAFAEL","19","ENTRADA PRINCIPAL","08906","Hospitalet de Llobregat, l'","08101","Barcelonès","Barcelona","2.099705836","41.35949256","POINT (2.099705836 41.35949256)","AJUNTAMENT DE L'HOSPITALET"
"No","SOC Oficina del treball.","Carrer","de Llull","297","A la entrada, totalment visible i accessible.","08019","Barcelona","08019","Barcelonès","Barcelona","2.208506223","41.40635088","POINT (2.208506223 41.40635088)","Servei Públic d¿Ocupació de Catalunya"
"No","CARDIOSOS GLOBAL PROTECTION S.L.","Avinguda","EUROPA Cantonada ABAT OLIVA, Local","8","DESFRIBIL·LADOR UBICAT A L'ENTRADA","08700","Igualada","08102","Anoia","Barcelona","1.61838971","41.57867362","POINT (1.61838971 41.57867362)","CARDIOSOS GLOBAL PROTECTION S.L."
"No","JUTJAT DE 1ª INSTÀNCIA I INSTRUCCIÓ Nº 1","Carrer","de Llobera","1","ENTRADA AL COSTAT DEL VIGILANT DE SEGURETAT.","25280","Solsona","25207","Solsonès","Lleida","1.518276917","41.99414315","POINT (1.518276917 41.99414315)","Sabico Seguridad S.A."
"No","ABP Solsona","Carrer","de Mossèn Jacint Verdaguer","19","ABP Solsona","25280","Solsona","25207","Solsonès","Lleida","1.511313992","41.99251234","POINT (1.511313992 41.99251234)","Departament de la Presidència"
"No","Mòdul de salvament de platges (Torre Valentina)","Passeig","de Torre Valentina",,"Mòdul de salvament de la platja de Torre Valentina a Sant Antoni de Calonge","17252","Calonge i Sant Antoni","17034","Baix Empordà","Girona","3.09546269234","41.83977862767","POINT (3.095462692344 41.839778627674)","Pro-Activa Serveis Aquàtics, SL"
"No","AJUNTAMENT DE MIERES","Carrer","Can Queló","0","Via pública","17830","Mieres","17105","Garrotxa","Girona","2.639264095","42.12304982","POINT (2.639264095 42.12304982)","AJUNTAMENT DE MIERES"
"No","Ajuntament de Vallgorguina","Plaça","de la Vila","4","UBICAT AL VEHICLE DELS VIGILANTS","08471","Vallgorguina","08294","Vallès Oriental","Barcelona","2.510607697","41.64749818","POINT (2.510607697 41.64749818)","Ajuntament de Vallgorguina"
"No","BERSHKA LOGÍSTICA, S.A.","Carretera","TORDERA A PALAFOLLS, KM 0,6","S/N","LOGÍSTICA, PASILLO COMEDOR - SERVICIO MÉDICO, PLANTA 0","08490","Tordera","08284","Maresme","Barcelona","2.71936849","41.70159435","POINT (2.71936849 41.70159435)","BERSHKA LOGÍSTICA, S.A."
"No","Mercat de les Tres Torres","Carrer","dels Vergós","2","Està ubicat a:Paret esquerra porta Carrer dels Vergós_","08017","Barcelona","08019","Barcelonès","Barcelona","2.13128881137","41.39994424375","POINT (2.131288811372 41.39994424375)","INSTITUT MUNICIPAL DE MERCATS DE BARCELONA"
"No","Escuder","Avinguda","de Gaudí","62","Hall d'entrada edifici oficines, planta baixa","08191","Rubí","08184","Vallès Occidental","Barcelona","2.014978792","41.47118788","POINT (2.014978792 41.47118788)","MAP FORMACIO SANITARIA I CARDIOPROTECCIO S.L."
"No","ESTABANELL ENERGIA","Carrer","del Rec","26","Vestíbul oficines carrer Rec","08401","Granollers","08096","Vallès Oriental","Barcelona","2.285059928","41.60971212","POINT (2.285059928 41.60971212)","Estabanell & Pahisa S.A."
"No","ABP Montblanc","Carrer","del Regne de Nàpols","2","ABP Montblanc","43400","Montblanc","43086","Conca de Barberà","Tarragona","1.165561388","41.36686564","POINT (1.165561388 41.36686564)","Departament de la Presidència"
"No","TORRE MELINA A GRAN MELIA HOTEL","Avinguda","Diagonal","671","El desfibrilidor está ubicado en la planta 8, saliendo de los ascensores.","08028","Barcelona","08019","Barcelonès","Barcelona","2.109664747","41.383481626","POINT (2.109664747 41.383481626)","BARCELONA PROJECT'S S.A."
"No","Kemira Ibérica, S.A.","Carrer","Gran Via de les Corts Catalanes","641","Entrada instal.lacions","08018","Barcelona","08019","Barcelonès","Barcelona","2.171493354","41.39217145","POINT (2.171493354 41.39217145)","Kemira Ibérica, S.A."
"No","AJUNTAMENT DE COPONS","Carrer","Angel Guimerà","8","SITUAT A L'ENTRADA DEL NUCLI DE SANT PERE DE COPONS I COMALATS SOTA UN PI. ESTA ENGANXAT A UN PAL DE FERRO","08289","Copons","08071","Anoia","Barcelona","1.518666253","41.63649233","POINT (1.518666253 41.63649233)","AJUNTAMENT DE COPONS"
"No","AJUNTAMENT DE CASTELLTERÇOL","Plaça","Vella","3","A l'exterior del Centre d'Atenció Primaria Dr. Salavert.","08183","Castellterçol","08064","Moianès","Barcelona","2.120546606","41.75139423","POINT (2.120546606 41.75139423)","AJUNTAMENT DE CASTELLTERÇOL"
"No","Domo Polymer Solutions Spain","Avinguda","de l' Estació","74","Façana principal, edifici servei contra incendis","17300","Blanes","17023","Selva","Girona","2.770864864","41.67468409","POINT (2.770864864 41.67468409)","Domo Polymer Solutions Spain, S.L."
"No","REFTRANS, S.A.","Carrer","SANT JOSEP PG. PLA","142","DINTRE DE LES INSTAL.LACIONS","08980","Sant Feliu de Llobregat","08211","Baix Llobregat","Barcelona","2.046694739","41.38089408","POINT (2.046694739 41.38089408)","REFTRANS, S.A."
"Sí","CAIXABANK BANCA PREMIER0992 MSHCAIXABANK BANCA PREMIER","Avinguda","Diagonal","621","Vehículo de empresa matrícula 0992 MSH","08028","Barcelona","08019","Barcelonès","Barcelona","427,067.682","4,582,365.267","POINT (427067.682 4582365.267)","CaixaBank Facilities Management, S.A."
"Sí","9090LWH","Plaça","d'en Caritg","0",,"08917","Badalona","08015","Barcelonès","Barcelona",,,,"AJUNTAMENT DE BADALONA"
"No","AJUNTAMENT DE CASTELLVELL DEL CAMP","Plaça","de Catalunya","1","FAÇANA","43392","Castellvell del Camp","43042","Baix Camp","Tarragona","1.096803685","41.18092707","POINT (1.096803685 41.18092707)","AJUNTAMENT CASTELLVELL DEL CAMP"
"No","Mercat Municipal de Sant Salvador","Carrer","de Francesc Macià","22","Mercat Municipal de Sant Salvador","08720","Vilafranca del Penedès","08305","Alt Penedès","Barcelona","1.69191485","41.342726086","POINT (1.69191485 41.342726086)","AJUNTAMENT DE VILAFRANCA DEL PENEDÈS"
"No","Pavelló Municipal Juanjo Garra","Partida","de Balàfia","4","Entrada-recepció","25196","Lleida","25120","Segrià","Lleida","0.609056375","41.63411363","POINT (0.609056375 41.63411363)","AJUNTAMENT DE LLEIDA"
"No","PALAU DEL MAR","Plaça","de Pau Vila","1","GARITA DE SEGURIDAD, ENFRENTE DEL MUSEO DE HISTORIA DE CATALUNYA","08039","Barcelona","08019","Barcelonès","Barcelona","2.185761866","41.381100042","POINT (2.185761866 41.381100042)","COMUNIDAD DE CONCESIONARIOS DEL EDIFICIO PALAU DEL MAR"
"No","FPEVBARCELONA COL·LEGI IMMACULADA DE SABADELL","Carrer","DOS DE MAIG","247-249","PASSADÍS CENTRAL","08013","Barcelona","08019","Barcelonès","Barcelona","2.175672481","41.41173308","POINT (2.175672481 41.41173308)","FPEVBARCELONA COL·LEGI IMMACULADA DE SABADELL"
"No","LivaNova España, S.L.","Passeig","de Gràcia","6","Accés oficines","08007","Barcelona","08019","Barcelonès","Barcelona","2.16947304","41.38888759","POINT (2.16947304 41.38888759)","LivaNova España SL"
"No","AJUNTAMENT DE LLERS","Carrer","Sant Quirze","16","A LA FAÇANA DEL AJUNTAMENT","17730","Llers","17093","Alt Empordà","Girona","2.909373042","42.29562148","POINT (2.909373042 42.29562148)","AJUNTAMENT DE LLERS"
"No","BERGE GEFCO","Lloc","MUELLE ANDALUCIA","S/N","HALL DE LA OFICINA","43004","Tarragona","43148","Tarragonès","Tarragona","1.256503155","41.11692543","POINT (1.256503155 41.11692543)","BERGE GEFCO SL"
"No","Ajuntament de Sant Feliu de Guíoxls","Plaça","DEL MERCAT","6-9","VIA PÚBLICA","17220","Sant Feliu de Guíxols","17160","Baix Empordà","Girona","3.028735923","41.78070807","POINT (3.028735923 41.78070807)","Ajuntament Sant Feliu de Guíxols"
"No","AGROMILLORA IBERIA SL","Carrer","Elrebato","s/n","Centre de treball, zona d'entrada al mòdul de producció, prop de la zona de menjador y oficina.","08739","Subirats","08273","Alt Penedès","Barcelona","1.797339874","41.38350042","POINT (1.797339874 41.38350042)","AGROMILLORA IBERIA SL"
"No","COMERCIAL TILE S.A.","Camí","APARTAMENTS ORSA","SN","Accés piscina càmping","17252","Calonge i Sant Antoni","17034","Baix Empordà","Girona","3.09601973748","41.85080558977","POINT (3.096019737476 41.850805589767)","COMERCIAL TILDE S.A."
"No","AJUNTAMENT DE CALDES D'ESTRAC","Plaça","de la Vila","s/n","Vehicle policial Dacia Duster (3116-HWK)","08393","Caldes d'Estrac","08032","Maresme","Barcelona","2.52769689","41.57246571","POINT (2.52769689 41.57246571)","AJUNTAMENT DE CALDES D'ESTRAC"
"No","BITRON INDUSTRIE ESPAÑA, SAU","Carrer","IFNI","24","LOCAL DEL SERVICIO DE SEGURIDAD DE BITRON ESPAÑA, VIGILANTES DE PROSEGUR.","08930","Sant Adrià de Besòs","08194","Barcelonès","Barcelona","2.230748237","41.4290228","POINT (2.230748237 41.4290228)","BITRON INDUSTRIE ESPAÑA, SAU"
"No","AJUNTAMENT DE POLINYA","Carrer","d' Ernest Lluch","7","FAÇANA PRINCIPAL DE L'ENTRADA AL CASAL DE LA GENT GRAN","08213","Polinyà","08167","Vallès Occidental","Barcelona","2.156284164","41.55342137","POINT (2.156284164 41.55342137)","AJUNTAMENT DE POLINYA"
"No","DIVERSGY ESPAÑA SERVICES SL","Ronda","Maiols","18","A la recepció de les oficines.","08192","Sant Quirze del Vallès","08238","Vallès Occidental","Barcelona","2.092399253","41.5379214","POINT (2.092399253 41.5379214)","DIVERSGY ESPAÑA SERVICES SL"
"No","TECHNOLOGY 2050, S.L.","Carrer","LLEIDA","63","Façana exterior dreta de l'Ajuntament","08711","Òdena","08143","Anoia","Barcelona","1.643598824","41.58310624","POINT (1.643598824 41.58310624)","TECHNOLOGY 2050, S.L."
"No","COSES DE CASA NOSTRE SL","Carrer","LONGITUDINAL 10","61","ZONA OFICINES","08040","Barcelona","08019","Barcelonès","Barcelona","2.11248672","41.33287451","POINT (2.11248672 41.33287451)","COSES DE CASA NOSTRE SL"
"No","CENTRE CÍVIC","Avinguda","de la Diputació","7","A la paret exterior del Centre Cívic.","08796","Pacs del Penedès","08154","Alt Penedès","Barcelona","1.669438284","41.3610161","POINT (1.669438284 41.3610161)","Ajuntament de Pacs del Penedès"
"No","AJUNTAMENT DE TIVISSA","Carrer","Castell","2","EXTERIOR ESCOLA MARCE·LÍ DOMINGO","43746","Tivissa","43150","Ribera d'Ebre","Tarragona","0.732659966","41.04259629","POINT (0.732659966 41.04259629)","AJUNTAMENT DE TIVISSA"
"No","Centre de Serveis Calldetenes","Plaça","d' Armand Quintana","0","A la façana del Centre, accessible i degudament senyalitzat","08506","Calldetenes","08037","Osona","Barcelona","2.285190385","41.92699387","POINT (2.285190385 41.92699387)","Ajuntmaent de Calldetenes"
"Sí","- 2789-JJV","Plaça","Major","1","VEHÍCLE MUNICIPAL","25200","Cervera","25072","Segarra","Lleida",,,,"AJUNTAMENT CERVERA"
"No","LGAI Technological Center SA","Ronda","de la font del carme","0","Ubicado en el vestíbulo de entrada al edificio B","08193","Cerdanyola del Vallès","08266","Vallès Occidental","Barcelona","2.107825669","41.497535","POINT (2.107825669 41.497535)","LGAI Technological Center SA"
"No","AJUNTAMENT DE NALEC","Plaça","de l'Església","1","Davant de l'Ajuntament","25341","Nalec","25145","Urgell","Lleida","1.115170067","41.559881","POINT (1.115170067 41.559881)","AJUNTAMENT DE NALEC"
"No","BASIC FIT RIPOLLETBASIC FIT RIPOLLET","Carrer","de Tarragona","2","HALL ENTRADA","08291","Ripollet","08180","Vallès Occidental","Barcelona","2.155560394","41.494733702","POINT (2.155560394 41.494733702)","Basic Fit Spain, S.A.U."
"No","Freudenberg Sealing Technologies SLU","Carrer","del Gregal","4","Hall de recepció","08150","Parets del Vallès","08159","Vallès Oriental","Barcelona","2.24369587","41.56484165","POINT (2.24369587 41.56484165)","FREUDENBERG ESPAÑA SA"
"No","AJUNTAMENT","Carrer","Major","10","AJUNTAMENT","08635","Sant Esteve Sesrovires","08208","Baix Llobregat","Barcelona","1.874433496","41.493352458","POINT (1.874433496 41.493352458)","AJUNTAMENT DE SANT ESTEVE SESROVIRES"
"No","ZONA ESPORTIVA MUNICIPAL","Barri","ZONA ESPORTIVA MUNICIPAL","S/N","VESTUARIS.","08613","Vilada","08299","Berguedà","Barcelona","1.92844","42.13553","POINT (1.92844 42.13553)","AJUNTAMENT DE VILADA"
"No","GENERALITAT DE CATALUNYA","Plaça","de Sant Jaume","4","Vehicle policial de la RegiÃ³ Policial de Girona amb mobilitat diÃ ria pel territori de Girona","08002","Barcelona","08019","Barcelonès","Barcelona","2.176800531","41.38280624","POINT (2.176800531 41.38280624)","Departament de la Presidència"
"No","Institut Barcelona Esports","Avinguda","DE L' ESTADI","40","RECEPCION","08019","Barcelona","08019","Barcelonès","Barcelona","2.151823301","41.3659537","POINT (2.151823301 41.3659537)","INSTITUT BARCELONA ESPORTS"
"No","PLASTIFLEX ESPAÑA, SAU","Polígon","La Dorda, c/ Barcelones","32","SALA DE VISITES","08140","Caldes de Montbui","08033","Vallès Oriental","Barcelona","2.164078878","41.63445442","POINT (2.164078878 41.63445442)","PLASTIFLEX ESPAÑA, SAU"
"No","MAN TRUCK & BUS","Passeig","Fluvial","30","ES UN CENTRO DE TRABAJO COMPUESTO POR OFICINAS COMERCIALES, ALMACEN Y TALLER DE REPARACIÓN DE VEHÍCULOS INDUSTRIALES.","08150","Parets del Vallès","08159","Vallès Oriental","Barcelona","2.2358499","41.5634714","POINT (2.2358499 41.5634714)","MAN TRUCK & BUS IBERIA SA"
"No","Ajuntament de Rupit i Pruït","Carrer","l' Església","5","A L'INTERIOR DE LA OFICINA DE TURISME","08569","Rupit i Pruit","08901","Osona","Barcelona","2.465019017","42.0238449","POINT (2.465019017 42.0238449)","Ajuntament de Rupit i Pruït"
"No","AJUNTAMENT DE L'ALBI","Carrer","Abeurador","1","Al costat de la barra del bar.","25450","Albi, l'","25009","Garrigues","Lleida","0.936267112","41.42300164","POINT (0.936267112 41.42300164)","AJUNTAMENT DE L'ALBI"
"No","COOPERATIVA VIGO SCCL","Carretera","del Mas Oliva","0","Ubicado en una vitrina junto a la enfermería","17480","Roses","17152","Alt Empordà","Girona","3.18010211","42.26782594","POINT (3.18010211 42.26782594)","VIGO SCCL"
"No","MANIPUL TORELLÓ, SL","Carrer","Can Casarramona","33-35","A L'ENTRADA PRINCIPAL, A L'INTERIOR DE L'EDIFICI","08570","Torelló","08285","Osona","Barcelona","2.242907742","42.05372554","POINT (2.242907742 42.05372554)","MANIPUL TORELLÓ, SL"
"No","FUNDACIÓ BARCELONA SALUT","Carrer","DIPUTACIO","238","HALL","08007","Barcelona","08019","Barcelonès","Barcelona","2.164715072","41.38849942","POINT (2.164715072 41.38849942)","FUNDACIÓ BARCELONA SALUT"
"No","Mercat de Santa Caterina","Avinguda","de Francesc Cambó","16","Està ubicat a: Costat porta de  Carrer d'En Giralt el Pellicer","08003","Barcelona","08019","Barcelonès","Barcelona","2.17818515155","41.38639444875","POINT (2.178185151554 41.386394448754)","INSTITUT MUNICIPAL DE MERCATS DE BARCELONA"
"No","AJUNTAMENT DE DARNIUS","Carrer","Major","3","Via pública","17722","Darnius","17060","Alt Empordà","Girona","2.832157029","42.36818547","POINT (2.832157029 42.36818547)","AJUNTAMENT DE DARNIUS"
"No","METROPOLIS SEGURIDAD Y PROTECCION, SL","Carrer","FRANCESC CARBONELL","43","GARITA DE SEGURETAT","08034","Barcelona","08019","Barcelonès","Barcelona","2.127364152","41.3938119","POINT (2.127364152 41.3938119)","METROPOLIS SEGURIDAD Y PROTECCION, SL"
"No","ANYTIME FITNESS IBERIA SLU","Carrer","MARIA CUBÍ","7","Recepció del gimnàs","08006","Barcelona","08019","Barcelonès","Barcelona","2.15149881","41.39929094","POINT (2.15149881 41.39929094)","ANYTIME FITNESS IBERIA SLU"
"No","Oficina de Turisme","Carrer","Sant Climent","21","Façana Exterior de l'Oficina de Turisme","08260","Súria","08274","Bages","Barcelona","1.751141239","41.83461257","POINT (1.751141239 41.83461257)","AJUNTAMENT DE SURIA"
"No","Cardio Guard Systems, SL","Carrer","Castillejos","437-439","EN LA RECEPCIÓ, VISIBLE","08024","Barcelona","08019","Barcelonès","Barcelona","2.167691249","41.41479621","POINT (2.167691249 41.41479621)","Cardio Guard Systems, SL"
"No","ABP Nou Barris","Carrer","d' Aiguablava","55","ABP Nou Barris","08042","Barcelona","08019","Barcelonès","Barcelona","2.182203927","41.44928363","POINT (2.182203927 41.44928363)","Departament de la Presidència"
"No","TRANSPORTES ESPECIALES Y QUIMICOS SA","Carrer","Dinamarca","0","Pasadis d'entrada a les oficines, a la pared de la dreta sentit entrada.","43120","Constantí","43047","Tarragonès","Tarragona","1.164026721","41.16229862","POINT (1.164026721 41.16229862)","TRANSPORTES ESPECIALES Y QUIMICOS SA"
"No","Castellers de LLeida","Carrer","Lluis Besa","7","Entrada de l'edifici dels Castellers de Lleida","25002","Lleida","25120","Segrià","Lleida","0.622114765","41.61371367","POINT (0.622114765 41.61371367)","AJUNTAMENT DE LLEIDA"
"No","METRO LINEA 3 VALL D'HEBRON","Plaça","DE LA VALL D'HEBRON","0","METRO LINEA 3 VALL D'HEBRON","08035","Barcelona","08019","Barcelonès","Barcelona","2.141040942","41.421780908","POINT (2.141040942 41.421780908)","FERROCARRIL METROPOLITÀ DE BARCELONA SA"
"No","Residència Empresseguera","Partida","d' Empresseguera","5","A la recepció de la residència","25192","Lleida","25120","Segrià","Lleida","0.590807788","41.61282265","POINT (0.590807788 41.61282265)","FUNDACIÓ ASPROS"
"No","AJUNTAMENT DE SANT MARTÍ D'ALBARS","Carrer","LA BLAVA","SN","A UN LATERAL DEL LOCAL","08515","Sant Martí d'Albars","08225","Lluçanès","Barcelona","2.07061442","42.04485498","POINT (2.07061442 42.04485498)","AJUNTAMENT DE SANT MARTÍ D'ALBARS"
"No","ESPARBÉ S.A.","Avinguda","de la Pirelli","1","ENTRADA DE FÀBRICA","08241","Manresa","08113","Bages","Barcelona","1.812295724","41.72819845","POINT (1.812295724 41.72819845)","ESPARBÉ S.A."
"No","DSV AIR AND SEA","Carrer","de la Pagesia","1","CONTROL DE SEGURIDAD","08191","Rubí","08184","Vallès Occidental","Barcelona","2.037913057","41.50950149","POINT (2.037913057 41.50950149)","DSV AIR AND SEA S.A.U."
"No","Ajuntament de Calella","Plaça","de l'Ajuntament","9","LATERAL DEL CARRER","08370","Calella","08035","Maresme","Barcelona","2.65695834","41.61325728","POINT (2.65695834 41.61325728)","Ajuntament de Calella"
"No","CARDIOSOS GLOBAL PROTECTION S.L.","Carrer","Montmaneu","5","façana del bar del camp de futbol","08717","Igualada","08102","Anoia","Barcelona","1.612369885","41.58842782","POINT (1.612369885 41.58842782)","CARDIOSOS GLOBAL PROTECTION S.L."
"No","CID - CSIC","Carrer","Jordi Girona","18-26","El DEA estarà situat a la recepció de l'edifici. Just a l'entrada.","08034","Barcelona","08019","Barcelonès","Barcelona","2.114926861","41.38767564","POINT (2.114926861 41.38767564)","DELEGACIÓN DEL CONSEJO SUPERIOR DE INVESTIGACIONES CIENTÍFICAS EN CATALUÑA"
"No","Palau d¿Esports-Pista","Avinguda","Camí Ral de Cerdanya","32","Palau d¿Esports-Pista","25700","Seu d'Urgell, la","25203","Alt Urgell","Lleida","1.466132848","42.359514211","POINT (1.466132848 42.359514211)","AJUNTAMENT DE LA SEU D'URGELL"
"Sí","- 2590 LYY C8","Avinguda","de Joan Carles I","120","Vehícle policial","17300","Blanes","17023","Selva","Girona",,,,"AJUNTAMENT DE BLANES"
"No","AUTOCARES IZARO, SA","Carrer","Mare de Deu del Port","153","A la sala de descans del personal, just entrar a mà dreta.","08038","Barcelona","08019","Barcelonès","Barcelona","2.147736327","41.35425659","POINT (2.147736327 41.35425659)","AUTOCARES IZARO, SA"
"No","GENERALITAT DE CATALUNYA","Carrer","Vista Alegre","5","Vehicle policial de la Regió Policial de Girona amb mobilitat diària per la província de Girona","17004","Girona","17079","Gironès","Girona","2.82522954","41.9776807","POINT (2.82522954 41.9776807)","Departament de la Presidència"
"No","WEWORK","Carrer","de Tànger","86","Edifici WEWORK  Planta 8,  pantry","08018","Barcelona","08019","Barcelonès","Barcelona","2.192320501","41.40200709","POINT (2.192320501 41.40200709)","WEWORK COMMUNITY WORKSPACE SL"
"No","AJUNTAMENT DE TALAMANCA","Plaça","de l'Església","1","Accés al Casal del Poble","08278","Talamanca","08277","Bages","Barcelona","1.977233602","41.73825976","POINT (1.977233602 41.73825976)","AJUNTAMENT DE TALAMANCA"
"No","The Club Padel Manresa","Carretera","Santpedor","s/n","Recepció","08272","Sant Fruitós de Bages","08213","Bages","Barcelona","1.84373197744","41.75041443828","POINT (1.843731977435 41.750414438275)","CORDIS PIRENAICA SL"
"No","IDIADA","Avinguda","ALBORNAR","S/N","SEDE 1","43710","Santa Oliva","43140","Baix Penedès","Tarragona","1.518377874","41.26741548","POINT (1.518377874 41.26741548)","IDIADA AUTOMOTIVE TECHNOLOGY S.A."
"No","ALTIUS SERVEIS I RECURSOS, SL","Carretera","Acés al seminari","16","PASSADÍS D'ACCÉS A ADMINISTRACIÓ","43500","Tortosa","43155","Baix Ebre","Tarragona","0.521834204","40.81099968","POINT (0.521834204 40.81099968)","ALTIUS SERVEIS I RECURSOS, SL"
"No","Davant caseta àrbitre Camp Municipal de Futbol Nar","Carrer","de Santa Coloma","37","Davant caseta àrbitre Camp Municipal de Futbol Narcís Sala","08030","Barcelona","08019","Barcelonès","Barcelona","2.192542538","41.42891568","POINT (2.192542538 41.42891568)","AJUNTAMENT DE BARCELONA - DISTRICTE SARRIÀ SANT GERVASI"
"No","AJUNTAMENT DE TARADELL","Carrer","de la Vila","45","Al vestíbul del centre cultural Costa i Font","08552","Taradell","08278","Osona","Barcelona","2.287283958","41.87437083","POINT (2.287283958 41.87437083)","AJUNTAMENT DE TARADELL"
"No","GIMNÀS DINAMIC SPORT","Carrer","de la Gran Bretanya","24","GIMNÀS","08700","Igualada","08102","Anoia","Barcelona","1.630551958","41.58832342","POINT (1.630551958 41.58832342)","ANOIA FITNES CLUB"
"No","CAMP DE FUTBOL DE L'ARMENTERA","Camí","DEL RIU","S/N","EN EL CAMP DE FUTBOL DE L'ARMENTERA SITUAT A : 53HC+6X L'Armentera","17472","Armentera, l'","17011","Alt Empordà","Girona","3.075415851","42.17398456","POINT (3.075415851 42.17398456)","AJUNTAMENT DE L'ARMENTERA"
"No","Hotel Gran Claustre-Habitació quadre de llum","Carrer","del Mas dels Cups","2","Hotel Gran Claustre-Habitació quadre de llum","43130","Tarragona","43148","Tarragonès","Tarragona","1.241820728","41.153050353","POINT (1.241820728 41.153050353)","TAMARIT, S.A."
"No","AJUNTAMENT DE REUS","Plaça","MERCADAL","1","MATRÍCULA 0319HCF","43201","Reus","43123","Baix Camp","Tarragona","1.108800888","41.15531744","POINT (1.108800888 41.15531744)","AJUNTAMENT DE REUS"
"No","Avicosan","Carrer","del Treball","26","Vestidors","08940","Cornellà de Llobregat","08073","Baix Llobregat","Barcelona","2.088500465","41.3478337","POINT (2.088500465 41.3478337)","AVICOLA SANCHEZ"
"No","AJUNTAMENT SANT MARTÍ SARROCA","Carrer","Ferran Muñoz","4-6","UBICAT AL CARRER, CANTONADA AMB CARRER SALVADOR RAVENTÓS (AJUNTAMENT VELL)","08731","Sant Martí Sarroca","08227","Alt Penedès","Barcelona","1.610735554","41.38432798","POINT (1.610735554 41.38432798)","AJUNTAMENT SANT MARTÍ SARROCA"
"Sí","- 1665 HFJ","Avinguda","d' Europa","37",,"17490","Llançà","17092","Alt Empordà","Girona",,,,"AJUNTAMENT DE LLANÇÀ"
"Sí","AJUNTAMENT DEL MASNOU","Carrer","Prat de la Riba","1","VEHICLE MATRICULA: 6952 JCT Unitat M5","08320","Masnou, el","08118","Maresme","Barcelona",,,,"AJUNTAMENT DEL MASNOU"
"No","COMUNITAT PROPIETARIS EDIF PS BONANOVA 46-54","Passeig","BONANOVA","46","EL NUMERO DE LA DIRECCIO ES 46-54, EL DEA ESTA UBICAT A LA PORTA D'ACCES AL PARKING","08017","Barcelona","08019","Barcelonès","Barcelona","2.128176622","41.40382658","POINT (2.128176622 41.40382658)","EXTERNALIZACION DE SERVICIOS Y COMPRAS PARA LA INTEGRACION DE DISCAPACITADO"
"No","NISSAN","Avinguda","de la Granvia de l'Hospitalet","149","EL DESFIBRILADOR ESTA INSTALADO EN VITRINA CON SU CARTELERIA CORRESPONDIENTE","08908","Hospitalet de Llobregat, l'","08101","Barcelonès","Barcelona","2.120036867","41.35253533","POINT (2.120036867 41.35253533)","NISSAN MOTOR IBÉRICA,S.A."
"No","CARDIAC FUTURE IDEA, SL","Passeig","VERDAGUER","118","PLANTA BAIXA","08700","Igualada","08102","Anoia","Barcelona","1.623438287","41.58002076","POINT (1.623438287 41.58002076)","CARDIAC FUTURE IDEA SL"
"No","CAL INDUSTRIAL, SL","Disseminat","PONT MAJOR","17","AL LABORATORI","17007","Girona","17079","Gironès","Girona","2.829658944","42.00472145309","POINT (2.829658944001 42.004721453089)","CAL INDUSTRIAL, SL"
"No","METRO LINEA 5 BADAL","Carrer","de Sants","331","METRO LINEA 5 BADAL","08028","Barcelona","08019","Barcelonès","Barcelona","2.127395113","41.375479134","POINT (2.127395113 41.375479134)","FERROCARRIL METROPOLITÀ DE BARCELONA SA"
"No","IGIMSA CMC SURIA","Carretera","de Berga","33","ENTRADA DE L'EDIFICI","08272","Sant Fruitós de Bages","08213","Bages","Barcelona","1.85987705","41.74733721","POINT (1.85987705 41.74733721)","C.M.C. SURIA, S.L.,"
"Sí","Equipo de Bomberos 1. (Aeropuerto QSA) - Vehiculo de extinción de incendios solo opera dentro del aeropuerto","Carretera","Bellaterra","S/N","Equip de Bombers 1. (Aeroport de Sabadell)","08205","Sabadell","08187","Vallès Occidental","Barcelona",,,,"AENA SME, SA"
"No","HOTEL GOLDEN DONAIRE","Carrer","ALCALDE JOAN BERTRAN","34-38","EQUIP MÒBIL","43201","Reus","43123","Baix Camp","Tarragona","1.095927871","41.14986104","POINT (1.095927871 41.14986104)","AUNAR GROUP 2009,SL"
"No","INSTITUCIÓ BENÈFICA AMICS DELS AVIS","Carrer","Creueta","51","SITUAT AL PASSADÍS, AL COSTAT DE LA RECEPCIÓ","08270","Navarcles","08140","Bages","Barcelona","1.908755131","41.74782422","POINT (1.908755131 41.74782422)","INSTITUCIÓ BENÈFICA AMICS DELS AVIS"
"No","AJUNTAMENT D'ALBESA","Carrer","de la Creu","13","Vorera del carrer núm 13, sota el fanal.","25135","Albesa","25008","Noguera","Lleida","0.657761199","41.75192591","POINT (0.657761199 41.75192591)","AJUNTAMENT D'ALBESA"
"No","ELECTRODOMÉSTICOS TAURUS, SL","Avinguda","Barcelona","s/n","A LA RECEPCIÓ","25751","Oliana","25149","Alt Urgell","Lleida","1.312577054","42.06318619","POINT (1.312577054 42.06318619)","ELECTRODOMÉSTICOS TAURUS, SL"
"No","INSTITUT DE SEGURETAT PUBLICA DE CATALUNYA","Carretera","C-17 BARCELONA-RIPOLL KM 13'5","0","EDIFICI BOULEVAR - ENTRADA","08100","Mollet del Vallès","08124","Vallès Oriental","Barcelona","2.22288955","41.5516525","POINT (2.22288955 41.5516525)","INSTITUT DE SEGURETAT PUBLICA DE CATALUNYA"
"No","INSTAL·LACIONS ESPORTIVES MUNICIPALS","Carrer","Joan Gich Bech de Careda","S/N","Façana vestidors instal·lacions esportives municipals.","17707","Agullana","17001","Alt Empordà","Girona","2.845861825","42.39516179","POINT (2.845861825 42.39516179)","AJUNTAMENT D'AGULLANA"
"No","Residència Onze de Setembre","Avinguda","Onze de Setembre","81","Entrada","08820","Prat de Llobregat, el","08169","Baix Llobregat","Barcelona","2.093670402","41.3194313","POINT (2.093670402 41.3194313)","PERE MATA SOCIAL, SA"
"No","AJUNTAMENT DELS HOSTALETS DE PIEROLA","Plaça","Cal Figueres","1",,"08781","Hostalets de Pierola, els","08162","Anoia","Barcelona","1.770514683","41.53393176","POINT (1.770514683 41.53393176)","AJUNTAMENT DELS HOSTALETS DE PIEROLA"
"No","DIPSALUT","Carrer","Pic de Peguera","15","Desfibril·lador itinerant, es cedeix temporalment per cardioprotegir activitats.","17003","Girona","17079","Gironès","Girona","2.836938124","41.96724697","POINT (2.836938124 41.96724697)","DIPSALUT"
"No","ARKEMA QUÍMICA PLANTA DE MOLLETARKEMA QUÍMICA PLANTA DE MOLLET","Carrer","d' Octave Lecante","16","EXTERIOR EDIFICI OFICINES","08100","Mollet del Vallès","08124","Vallès Oriental","Barcelona","2.230729486","41.550055393","POINT (2.230729486 41.550055393)","ARKEMA QUIMICA, S.A.U."
"No","AJUNTAMENT DE CORNELLÀ DE LLOBREGAT","Plaça","DE L'ESGÈSIA","S/N","VEHICLE. MATRICULA 3949KGR","08940","Cornellà de Llobregat","08073","Baix Llobregat","Barcelona","2.07059475","41.35588354","POINT (2.07059475 41.35588354)","AJUNTAMENT DE CORNELLÀ DE LLOBREGAT"
"No","KROMSCHROEDER S.A","Carrer","de Santa Eulàlia","213","INTERIOR DE L'ESTABLIMENT","08902","Hospitalet de Llobregat, l'","08101","Barcelonès","Barcelona","2.117514922","41.36503197","POINT (2.117514922 41.36503197)","CARLES PONS VIÑEGLAS"
"No","SOMNIKA BEDS SL","Carrer","Compositor Bizet","33","Entrada nau -planta baixa- paret exterior menjador treballadors","08191","Rubí","08184","Vallès Occidental","Barcelona","2.021816474","41.4714116","POINT (2.021816474 41.4714116)","SOMNIKA BEDS SL"
"No","-","Carrer","Cases Noves","11","A la paret exterior del Sindicat Agrícola","43414","Montblanc","43086","Conca de Barberà","Tarragona","1.21290711","41.3482779","POINT (1.21290711 41.3482779)","AJUNTAMENT DE MONTBLANC"
"No","INSTITUTO CIRUGIA PLÀSTICA DE BARCELONA SLP","Passeig","De Gràcia","60","Sala de Cures de 15,60 m2","08007","Barcelona","08019","Barcelonès","Barcelona","2.164649229","41.39278384","POINT (2.164649229 41.39278384)","INSTITUTO CIRUGIA PLÀSTICA DE BARCELONA SLP"
"No","METRO LINEA 3 PALAU REIAL","Avinguda","Diagonal","690","METRO LINEA 3 PALAU REIAL","08034","Barcelona","08019","Barcelonès","Barcelona","2.114949926","41.385661077","POINT (2.114949926 41.385661077)","FERROCARRIL METROPOLITÀ DE BARCELONA SA"
"No","INMOBILIARIA APROTUSA, S.L.","Carrer","MAYOR","55","A la recepció, a la vista de tots el clients","43840","Salou","43905","Tarragonès","Tarragona","1.1420416","41.07581741","POINT (1.1420416 41.07581741)","INMOBILIARIA APROTUSA, S.L."
"No","Planta de Regasificación de Barcelona (Muelle de Inflamables)","Carrer","Muelle de la Energia Tramo","VIII","Centro de vigilància del Pantalán (Atraque Buques) de la Planta de Regasificación","08039","Barcelona","08019","Barcelonès","Barcelona","2.15522285522","41.33738813522","POINT (2.155222855222 41.337388135217)","ENAGAS SA"
"No","GENERALITAT DE CATALUNYA","Plaça","de Sant Jaume","4","Vehicle policial de la RegiÃ³ Policial de Girona amb mobilitat diÃ ria pel territori de Girona","08002","Barcelona","08019","Barcelonès","Barcelona","2.176800531","41.38280624","POINT (2.176800531 41.38280624)","Departament de la Presidència"
"No","City Park Edificio Paris F","Carretera","Carretera de Hospitalet 147-149","147-149","Espacio de oficinas","08940","Cornellà de Llobregat","08073","Baix Llobregat","Barcelona","2.095063103","41.35889462","POINT (2.095063103 41.35889462)","SOLITIUM PROFIMATICA SLU"
"No","Fundació Champagnat","Carrer","EVARIST ARNÃS","44","El DEA està penjat a una paret de fora del pavelló (aprop d'un dels accessos).","08014","Barcelona","08019","Barcelonès","Barcelona","2.134773141","41.38316785","POINT (2.134773141 41.38316785)","FUNDACIÓ CHAMPAGNAT"
"No","Cardio Guard Systems, SL","Carrer","Castillejos","437-439","RECEPCIO DEL HOTEL, VISIBLE AL PÚBLIC","08024","Barcelona","08019","Barcelonès","Barcelona","2.167691249","41.41479621","POINT (2.167691249 41.41479621)","Cardio Guard Systems, SL"
